City_ID,City,Country,Date,Lat,Lng,Max Temp,Humidity,Cloudiness,Wind Speed,Current Description,LightRain inches (last 24 hours),ClearSky inches (last 24 hours)
0,Palembang,ID,2021-09-16 16:48:17,-2.9167,104.7458,75.27,89,41,3.4,scattered clouds,0,0
1,Hilo,US,2021-09-16 16:48:18,19.7297,-155.09,76.28,89,90,9.22,overcast clouds,0,0
2,Bredasdorp,ZA,2021-09-16 16:48:18,-34.5322,20.0403,56.52,58,90,6.91,overcast clouds,0,0
3,Rikitea,PF,2021-09-16 16:48:19,-23.1203,-134.9692,73.17,77,7,14.7,light rain,0,0
4,Hualmay,PE,2021-09-16 16:48:19,-11.0964,-77.6139,66.47,69,33,9.62,scattered clouds,0,0
5,Sorland,NO,2021-09-16 16:48:19,67.667,12.6934,51.66,71,99,7.05,overcast clouds,0,0
6,Ilulissat,GL,2021-09-16 16:48:20,69.2167,-51.1,28.42,46,1,9.22,clear sky,0,0
7,Kapaa,US,2021-09-16 16:43:37,22.0752,-159.319,77.32,80,75,13.8,broken clouds,0,0
8,Hithadhoo,MV,2021-09-16 16:48:21,-0.6,73.0833,83.91,70,100,9.78,overcast clouds,0,0
9,Port Alfred,ZA,2021-09-16 16:48:21,-33.5906,26.891,59.02,67,69,20.24,broken clouds,0,0
10,Matara,LK,2021-09-16 16:48:21,5.9485,80.5353,79.48,86,99,8.66,overcast clouds,0,0
11,Eureka,US,2021-09-16 16:48:22,40.8021,-124.1637,54.25,86,3,1.01,clear sky,0,0
12,Marovoay,MG,2021-09-16 16:48:22,-16.1,46.6333,77.14,69,29,6.13,scattered clouds,0,0
13,Nikolskoye,RU,2021-09-16 16:48:23,59.7035,30.7861,46.29,79,82,4.23,broken clouds,0,0
14,Ushuaia,AR,2021-09-16 16:48:23,-54.8,-68.3,38.82,60,75,0.0,broken clouds,0,0
15,Hermanus,ZA,2021-09-16 16:48:23,-34.4187,19.2345,57.9,66,93,8.7,overcast clouds,0,0
16,Kiunga,PG,2021-09-16 16:48:24,-6.1219,141.2906,70.79,99,96,3.89,overcast clouds,0,0
17,Tisul,RU,2021-09-16 16:48:24,55.7611,88.3122,53.33,84,100,5.37,light rain,0,0
18,Bluff,NZ,2021-09-16 16:48:25,-46.6,168.3333,36.81,73,70,11.95,broken clouds,0,0
19,Tasiilaq,GL,2021-09-16 16:48:25,65.6145,-37.6368,39.36,68,25,4.54,scattered clouds,0,0
20,Guerrero Negro,MX,2021-09-16 16:45:26,27.9769,-114.0611,75.22,65,0,16.89,clear sky,0,0
21,Lorengau,PG,2021-09-16 16:43:53,-2.0226,147.2712,78.4,79,91,4.83,overcast clouds,0,0
22,Cherskiy,RU,2021-09-16 16:48:26,68.75,161.3,26.04,85,58,10.09,broken clouds,0,0
23,Tabou,CI,2021-09-16 16:48:27,4.423,-7.3528,79.2,83,77,11.07,light rain,0,0
24,Mangit,UZ,2021-09-16 16:48:27,40.5971,70.9607,70.88,17,0,10.63,clear sky,0,0
25,Kodiak,US,2021-09-16 16:48:27,57.79,-152.4072,51.31,93,90,6.91,light rain,0,0
26,Puerto Ayora,EC,2021-09-16 16:48:28,-0.7393,-90.3518,71.55,86,96,5.01,overcast clouds,0,0
27,Katsuura,JP,2021-09-16 16:48:28,35.1333,140.3,69.91,77,90,9.78,overcast clouds,0,0
28,Ahuimanu,US,2021-09-16 16:48:29,21.4447,-157.8378,78.51,77,75,5.75,light rain,0,0
29,Cintalapa,MX,2021-09-16 16:48:29,16.6951,-93.7272,81.88,68,84,4.0,broken clouds,0,0
30,Chumikan,RU,2021-09-16 16:48:30,54.7183,135.315,53.55,94,100,5.03,light rain,0,0
31,Yellowknife,CA,2021-09-16 16:48:30,62.456,-114.3525,41.52,75,40,11.5,scattered clouds,0,0
32,Awjilah,LY,2021-09-16 16:48:30,29.1081,21.2869,84.51,22,0,9.78,clear sky,0,0
33,Hobart,AU,2021-09-16 16:45:31,-42.8794,147.3294,45.27,93,86,6.91,overcast clouds,0,0
34,Port Blair,IN,2021-09-16 16:48:31,11.6667,92.75,78.48,84,100,8.55,overcast clouds,0,0
35,Chuy,UY,2021-09-16 16:48:31,-33.6971,-53.4616,64.85,53,0,3.02,clear sky,0,0
36,Askiz,RU,2021-09-16 16:48:32,53.1319,90.5264,57.43,57,100,2.77,overcast clouds,0,0
37,Atar,MR,2021-09-16 16:48:32,20.5169,-13.0499,103.95,15,25,1.99,scattered clouds,0,0
38,Punakha,BT,2021-09-16 16:48:33,27.5837,89.8598,70.2,94,93,1.1,overcast clouds,0,0
39,Key Largo,US,2021-09-16 16:46:44,25.0865,-80.4473,89.01,67,5,11.56,clear sky,0,0
40,Viraganur,IN,2021-09-16 16:48:33,11.4833,78.7333,80.06,79,90,7.72,overcast clouds,0,0
41,Omboue,GA,2021-09-16 16:48:34,-1.5746,9.2618,77.52,80,99,8.39,overcast clouds,0,0
42,Bud,US,2021-09-16 16:42:33,39.447,-86.1758,78.12,81,1,5.79,clear sky,0,0
43,Mughal Sarai,IN,2021-09-16 16:48:34,25.3,83.1167,78.87,91,100,7.07,overcast clouds,0,0
44,Cape Town,ZA,2021-09-16 16:48:01,-33.9258,18.4232,59.41,68,20,5.01,few clouds,0,0
45,Barrow,US,2021-09-16 16:48:35,71.2906,-156.7887,33.82,86,90,13.8,light snow,0,0
46,Kalmunai,LK,2021-09-16 16:48:35,7.4167,81.8167,79.93,80,100,1.79,overcast clouds,0,0
47,Mataura,NZ,2021-09-16 16:48:36,-46.1927,168.8643,36.48,99,11,2.66,few clouds,0,0
48,Lagoa,PT,2021-09-16 16:48:36,39.05,-27.9833,72.03,74,13,8.93,few clouds,0,0
49,Atuona,PF,2021-09-16 16:48:36,-9.8,-139.0333,77.4,73,5,17.29,clear sky,0,0
50,Marawi,PH,2021-09-16 16:48:37,7.9986,124.2928,64.65,97,100,3.11,overcast clouds,0,0
51,Sarab,IR,2021-09-16 16:48:37,38.6066,44.9883,74.39,16,0,4.0,clear sky,0,0
52,Kahului,US,2021-09-16 16:48:37,20.8947,-156.47,76.26,82,1,4.61,clear sky,0,0
53,Butaritari,KI,2021-09-16 16:48:38,3.0707,172.7902,81.12,78,37,15.3,moderate rain,0,0
54,Olafsvik,IS,2021-09-16 16:48:38,64.8945,-23.7142,49.69,71,99,10.22,overcast clouds,0,0
55,San Quintin,MX,2021-09-16 16:48:39,30.4833,-115.95,72.1,68,1,12.64,clear sky,0,0
56,Busselton,AU,2021-09-16 16:48:39,-33.65,115.3333,43.09,66,92,9.66,overcast clouds,0,0
57,Carnarvon,AU,2021-09-16 16:47:16,-24.8667,113.6333,62.67,63,0,16.11,clear sky,0,0
58,Namatanai,PG,2021-09-16 16:48:40,-3.6667,152.4333,77.67,83,88,5.48,light rain,0,0
59,Bonfim,BR,2021-09-16 16:48:40,3.0833,-59.95,94.5,40,1,4.29,clear sky,0,0
60,Dalnegorsk,RU,2021-09-16 16:48:41,44.5604,135.5701,54.27,99,100,1.52,overcast clouds,0,0
61,Navalmoral De La Mata,ES,2021-09-16 16:48:41,39.8916,-5.5406,81.95,39,23,2.91,few clouds,0,0
62,Ponta Do Sol,PT,2021-09-16 16:48:41,32.6667,-17.1,77.72,77,44,3.87,scattered clouds,0,0
63,Longyearbyen,SJ,2021-09-16 16:41:40,78.2186,15.6401,42.64,75,75,10.36,light rain,0,0
64,Cidreira,BR,2021-09-16 16:48:42,-30.1811,-50.2056,61.93,53,25,7.94,scattered clouds,0,0
65,Mar Del Plata,AR,2021-09-16 16:48:42,-38.0023,-57.5575,71.62,30,0,14.97,clear sky,0,0
66,Saint George,US,2021-09-16 16:44:37,37.1041,-113.5841,88.27,21,1,0.0,clear sky,0,0
67,Sabang,ID,2021-09-16 16:41:29,5.8933,95.3214,82.0,70,100,1.77,overcast clouds,0,0
68,Makakilo City,US,2021-09-16 16:48:43,21.3469,-158.0858,77.32,78,20,4.61,few clouds,0,0
69,Maceio,BR,2021-09-16 16:48:43,-9.6658,-35.7353,87.24,58,40,13.8,scattered clouds,0,0
70,Thompson,CA,2021-09-16 16:48:22,55.7435,-97.8558,53.76,54,40,12.66,scattered clouds,0,0
71,Rawson,AR,2021-09-16 16:48:44,-43.3002,-65.1023,68.47,29,40,10.42,scattered clouds,0,0
72,Albany,US,2021-09-16 16:48:44,42.6001,-73.9662,73.36,70,37,3.98,scattered clouds,0,0
73,Punta Arenas,CL,2021-09-16 16:44:01,-53.15,-70.9167,33.91,93,90,13.8,snow,0,0
74,Nanakuli,US,2021-09-16 16:48:45,21.3906,-158.1547,78.75,78,20,4.61,few clouds,0,0
75,Bad Hofgastein,AT,2021-09-16 16:48:45,47.1667,13.1,64.83,98,100,2.24,light rain,0,0
76,Ribeira Grande,PT,2021-09-16 16:48:46,38.5167,-28.7,75.6,78,20,10.36,few clouds,0,0
77,Karratha,AU,2021-09-16 16:48:46,-20.7377,116.8463,72.27,50,19,12.3,few clouds,0,0
78,Tuatapere,NZ,2021-09-16 16:48:46,-46.1333,167.6833,36.82,93,20,3.85,few clouds,0,0
79,Ilhabela,BR,2021-09-16 16:48:47,-23.7781,-45.3581,69.01,91,100,7.9,overcast clouds,0,0
80,Inhambane,MZ,2021-09-16 16:48:47,-23.865,35.3833,76.98,78,20,9.22,few clouds,0,0
81,Pryozerne,UA,2021-09-16 16:48:48,45.2698,36.3303,64.85,50,27,8.9,scattered clouds,0,0
82,Codrington,AU,2021-09-16 16:48:48,-38.2667,141.9667,50.67,65,47,14.65,scattered clouds,0,0
83,Kinkala,CG,2021-09-16 16:48:48,-4.3614,14.7644,82.44,57,97,7.43,overcast clouds,0,0
84,Bengkulu,ID,2021-09-16 16:48:49,-3.8004,102.2655,76.5,90,37,6.04,scattered clouds,0,0
85,Provideniya,RU,2021-09-16 16:48:49,64.3833,-173.3,37.0,79,100,0.69,overcast clouds,0,0
86,Nome,US,2021-09-16 16:48:50,64.5011,-165.4064,42.87,76,90,8.05,light rain,0,0
87,Port Elizabeth,ZA,2021-09-16 16:48:50,-33.918,25.5701,57.49,67,40,17.27,scattered clouds,0,0
88,Vaini,TO,2021-09-16 16:48:50,-21.2,-175.2,73.56,94,20,4.61,few clouds,0,0
89,Pangody,RU,2021-09-16 16:48:51,65.85,74.4859,40.91,76,100,11.61,overcast clouds,0,0
90,Wanaraja,ID,2021-09-16 16:48:51,-7.1749,107.9808,68.9,98,75,2.48,broken clouds,0,0
91,Esperance,AU,2021-09-16 16:48:52,-33.8667,121.9,48.04,75,82,24.76,light rain,0,0
92,Adrar,MR,2021-09-16 16:48:52,20.5022,-10.0711,102.88,13,46,4.56,scattered clouds,0,0
93,Vestmannaeyjar,IS,2021-09-16 16:48:53,63.4427,-20.2734,52.79,93,90,17.27,fog,0,0
94,Valparaiso,CL,2021-09-16 16:48:53,-33.0393,-71.6273,60.44,75,0,5.75,clear sky,0,0
95,Cap Malheureux,MU,2021-09-16 16:48:53,-19.9842,57.6142,72.09,86,3,3.0,clear sky,0,0
96,Arraial Do Cabo,BR,2021-09-16 16:48:54,-22.9661,-42.0278,76.96,73,75,8.05,broken clouds,0,0
97,Teguise,ES,2021-09-16 16:48:54,29.0605,-13.564,79.02,57,20,17.27,few clouds,0,0
98,Itacoatiara,BR,2021-09-16 16:48:55,-3.1431,-58.4442,99.54,30,3,3.96,light rain,0,0
99,Taoudenni,ML,2021-09-16 16:48:55,22.6783,-3.9836,103.98,17,62,21.77,broken clouds,0,0
100,Ostersund,SE,2021-09-16 16:42:29,63.1792,14.6357,46.85,81,0,12.66,clear sky,0,0
101,Russell,US,2021-09-16 16:42:04,32.3502,-85.1999,76.71,85,90,9.22,overcast clouds,0,0
102,Huilong,CN,2021-09-16 16:48:56,31.8111,121.655,72.99,82,89,12.55,overcast clouds,0,0
103,Namalenga,TZ,2021-09-16 16:48:56,-10.95,39.1,75.81,66,63,10.07,broken clouds,0,0
104,La Ligua,CL,2021-09-16 16:48:57,-32.4524,-71.2311,58.78,39,0,7.14,clear sky,0,0
105,Hervey Bay,AU,2021-09-16 16:48:57,-25.2986,152.8535,57.04,76,2,7.11,clear sky,0,0
106,Chapleau,CA,2021-09-16 16:48:57,47.8405,-83.4034,66.29,48,40,13.8,scattered clouds,0,0
107,Gediz,TR,2021-09-16 16:48:58,39.0417,29.41,60.53,68,63,7.14,broken clouds,0,0
108,Kidal,ML,2021-09-16 16:48:58,18.4411,1.4078,101.8,17,35,10.25,scattered clouds,0,0
109,Bombay,IN,2021-09-16 16:46:32,19.0144,72.8479,82.38,83,40,8.05,haze,0,0
110,Luwuk,ID,2021-09-16 16:48:59,-0.9516,122.7875,74.48,89,100,4.52,light rain,0,0
111,Santiago Del Estero,AR,2021-09-16 16:42:48,-27.7951,-64.2615,76.8,14,21,9.89,few clouds,0,0
112,Souillac,MU,2021-09-16 16:48:59,-20.5167,57.5167,71.98,88,40,6.91,light rain,0,0
113,Agadez,NE,2021-09-16 16:49:00,19.75,10.25,94.93,14,4,9.28,clear sky,0,0
114,Isangel,VU,2021-09-16 16:49:00,-19.55,169.2667,70.99,85,45,6.91,scattered clouds,0,0
115,Mpika,ZM,2021-09-16 16:49:01,-11.8343,31.4529,72.37,33,74,5.75,broken clouds,0,0
116,Airai,TL,2021-09-16 16:49:01,-8.9266,125.4092,58.98,85,79,3.04,broken clouds,0,0
117,Mackenzie,CA,2021-09-16 16:43:58,55.2999,-123.1698,35.82,93,1,5.75,clear sky,0,0
118,Nanacamilpa,MX,2021-09-16 16:49:02,19.4833,-98.55,63.66,61,89,4.03,overcast clouds,0,0
119,Pekalongan,ID,2021-09-16 16:49:02,-6.8886,109.6753,78.84,82,8,3.76,light rain,0,0
120,Hambantota,LK,2021-09-16 16:49:03,6.1241,81.1185,81.09,77,85,11.41,overcast clouds,0,0
121,Guangyuan,CN,2021-09-16 16:49:03,32.442,105.823,66.47,89,100,4.97,light rain,0,0
122,Qasigiannguit,GL,2021-09-16 16:49:04,68.8193,-51.1922,28.65,52,2,4.12,clear sky,0,0
123,Norman Wells,CA,2021-09-16 16:49:04,65.282,-126.8329,44.64,81,20,5.75,few clouds,0,0
124,Geraldton,AU,2021-09-16 16:49:05,-28.7667,114.6,52.21,93,75,4.61,broken clouds,0,0
125,Dikson,RU,2021-09-16 16:49:05,73.5069,80.5464,35.64,83,100,20.11,overcast clouds,0,0
126,Jamestown,US,2021-09-16 16:48:47,42.097,-79.2353,75.02,63,1,4.0,clear sky,0,0
127,Hami,CN,2021-09-16 16:45:05,42.8,93.45,76.82,16,28,2.26,scattered clouds,0,0
128,Portsmouth,GB,2021-09-16 16:49:06,50.799,-1.0913,71.49,77,8,9.78,clear sky,0,0
129,Margate,GB,2021-09-16 16:49:06,51.3813,1.3862,73.26,80,53,12.12,broken clouds,0,0
130,Bethel,US,2021-09-16 16:45:15,41.3712,-73.414,76.12,75,75,4.61,broken clouds,0,0
131,Kaitangata,NZ,2021-09-16 16:49:07,-46.2817,169.8464,40.1,80,99,4.38,overcast clouds,0,0
132,Elat,IL,2021-09-16 16:46:21,29.5581,34.9482,91.24,27,20,16.11,few clouds,0,0
133,Coihaique,CL,2021-09-16 16:49:07,-45.5752,-72.0662,57.81,51,40,9.22,light rain,0,0
134,Marica,BR,2021-09-16 16:49:09,-22.9194,-42.8186,75.09,90,100,7.92,overcast clouds,0,0
135,Kabo,CF,2021-09-16 16:49:09,7.6994,18.629,76.75,89,95,3.51,light rain,0,0
136,Kincardine,GB,2021-09-16 16:49:10,56.0667,-3.7167,66.92,80,92,5.66,light rain,0,0
137,Banda Aceh,ID,2021-09-16 16:49:10,5.5577,95.3222,78.75,78,100,3.09,overcast clouds,0,0
138,Klaksvik,FO,2021-09-16 16:49:10,62.2266,-6.589,52.72,89,56,14.94,broken clouds,0,0
139,Kayasula,RU,2021-09-16 16:49:11,44.325,45.0,72.03,33,100,17.36,light rain,0,0
140,Upernavik,GL,2021-09-16 16:49:11,72.7868,-56.1549,28.0,62,70,4.65,broken clouds,0,0
141,Amuntai,ID,2021-09-16 16:46:50,-2.4177,115.2494,72.68,98,100,1.01,overcast clouds,0,0
142,Ahipara,NZ,2021-09-16 16:49:12,-35.1667,173.1667,56.43,95,74,12.41,broken clouds,0,0
143,Kununurra,AU,2021-09-16 16:49:12,-15.7667,128.7333,78.78,69,19,3.44,few clouds,0,0
144,Qaanaaq,GL,2021-09-16 16:49:13,77.484,-69.3632,22.57,76,100,6.67,overcast clouds,0,0
145,Alyangula,AU,2021-09-16 16:49:13,-13.8483,136.4192,62.47,94,8,0.0,clear sky,0,0
146,Kardailovo,RU,2021-09-16 16:49:13,51.5386,53.9042,54.46,51,100,7.85,overcast clouds,0,0
147,Zhanaozen,KZ,2021-09-16 16:49:14,43.3,52.8,81.32,20,0,16.93,clear sky,0,0
148,Gambela,ET,2021-09-16 16:49:14,8.25,34.5833,73.51,90,76,4.0,light rain,0,0
149,Kavaratti,IN,2021-09-16 16:49:15,10.5669,72.642,81.77,79,67,13.15,broken clouds,0,0
150,Grand Gaube,MU,2021-09-16 16:49:15,-20.0064,57.6608,72.0,86,4,1.99,clear sky,0,0
151,Lethem,GY,2021-09-16 16:49:15,3.3803,-59.7968,96.51,36,5,4.43,clear sky,0,0
152,Avarua,CK,2021-09-16 16:49:16,-21.2078,-159.775,75.25,83,15,14.97,few clouds,0,0
153,Nsanje,MW,2021-09-16 16:49:16,-16.92,35.262,89.42,21,33,4.14,scattered clouds,0,0
154,Soyo,AO,2021-09-16 16:43:40,-6.1349,12.3689,80.65,86,56,9.84,broken clouds,0,0
155,Chunoyar,RU,2021-09-16 16:49:17,57.4467,97.3217,39.2,85,100,4.47,overcast clouds,0,0
156,Srednekolymsk,RU,2021-09-16 16:49:17,67.45,153.6833,37.09,73,100,5.37,overcast clouds,0,0
157,Kalemie,CD,2021-09-16 16:49:18,-5.9475,29.1947,76.59,71,31,7.43,scattered clouds,0,0
158,Sao Filipe,CV,2021-09-16 16:49:18,14.8961,-24.4956,80.87,76,90,12.73,overcast clouds,0,0
159,Marsa Matruh,EG,2021-09-16 16:49:19,31.3525,27.2453,78.17,62,0,18.97,clear sky,0,0
160,Bambous Virieux,MU,2021-09-16 16:49:19,-20.3428,57.7575,71.85,88,40,6.91,light rain,0,0
161,Gunjur,GM,2021-09-16 16:49:19,13.2019,-16.7339,82.47,83,75,0.0,broken clouds,0,0
162,Pemba,MZ,2021-09-16 16:49:20,-12.974,40.5178,79.5,83,75,18.41,broken clouds,0,0
163,Bembereke,BJ,2021-09-16 16:49:20,10.2283,2.6634,79.36,81,87,3.13,overcast clouds,0,0
164,Fortuna,US,2021-09-16 16:49:21,40.5982,-124.1573,53.98,90,1,0.0,clear sky,0,0
165,New Norfolk,AU,2021-09-16 16:49:21,-42.7826,147.0587,44.91,73,80,2.17,broken clouds,0,0
166,Saraland,US,2021-09-16 16:49:22,30.8207,-88.0706,87.31,87,66,7.16,broken clouds,0,0
167,Sault Sainte Marie,CA,2021-09-16 16:48:06,46.5168,-84.3333,71.89,50,1,8.05,clear sky,0,0
168,East London,ZA,2021-09-16 16:49:22,-33.0153,27.9116,59.94,77,20,12.66,light rain,0,0
169,Khatanga,RU,2021-09-16 16:49:23,71.9667,102.5,33.3,84,100,3.67,overcast clouds,0,0
170,Praia Da Vitoria,PT,2021-09-16 16:49:23,38.7333,-27.0667,77.76,73,75,8.12,broken clouds,0,0
171,Yar-Sale,RU,2021-09-16 16:41:24,66.8333,70.8333,39.09,91,95,13.33,overcast clouds,0,0
172,Chokurdakh,RU,2021-09-16 16:49:24,70.6333,147.9167,34.93,91,88,7.74,overcast clouds,0,0
173,Numan,NG,2021-09-16 16:49:24,9.4667,12.0333,86.0,65,92,6.91,overcast clouds,0,0
174,Jiazi,CN,2021-09-16 16:49:24,22.8779,116.067,82.56,79,12,2.13,few clouds,0,0
175,Korla,CN,2021-09-16 16:45:02,41.7597,86.1469,73.72,30,96,2.08,overcast clouds,0,0
176,Lukovetskiy,RU,2021-09-16 16:49:25,64.2956,41.9211,39.18,89,100,3.44,overcast clouds,0,0
177,Vao,NC,2021-09-16 16:49:26,-22.6667,167.4833,67.71,72,2,14.9,clear sky,0,0
178,Kaseda,JP,2021-09-16 16:49:26,31.4167,130.3167,78.76,89,74,11.18,broken clouds,0,0
179,Laguna,US,2021-09-16 16:49:27,38.421,-121.4238,75.02,74,1,3.0,clear sky,0,0
180,Mahebourg,MU,2021-09-16 16:49:27,-20.4081,57.7,71.89,88,40,6.91,light rain,0,0
181,Saint-Philippe,RE,2021-09-16 16:49:27,-21.3585,55.7679,72.95,85,42,9.64,light rain,0,0
182,Cabo San Lucas,MX,2021-09-16 16:48:20,22.8909,-109.9124,91.51,66,69,3.04,broken clouds,0,0
183,Eyl,SO,2021-09-16 16:49:28,7.9803,49.8164,78.39,83,31,20.96,scattered clouds,0,0
184,San Patricio,US,2021-09-16 16:49:28,28.017,-97.5169,86.41,55,86,8.01,overcast clouds,0,0
185,North Branch,US,2021-09-16 16:49:29,45.5113,-92.9802,79.23,63,15,17.18,few clouds,0,0
186,Tuktoyaktuk,CA,2021-09-16 16:49:29,69.4541,-133.0374,42.8,100,40,2.3,scattered clouds,0,0
187,Yazykovo,RU,2021-09-16 16:49:30,55.2199,56.1353,43.2,65,89,14.99,overcast clouds,0,0
188,Aklavik,CA,2021-09-16 16:49:30,68.2191,-135.0107,41.83,100,90,0.0,fog,0,0
189,Kulary,RU,2021-09-16 16:49:30,43.2397,45.5042,73.35,37,68,8.01,broken clouds,0,0
190,Anadyr,RU,2021-09-16 16:49:31,64.75,177.4833,36.1,93,75,11.18,light rain,0,0
191,Dwarka,IN,2021-09-16 16:49:31,22.2394,68.9678,81.95,89,100,13.09,overcast clouds,0,0
192,San Angelo,US,2021-09-16 16:44:38,31.4638,-100.437,85.64,57,1,5.01,clear sky,0,0
193,Shimoda,JP,2021-09-16 16:49:32,34.6667,138.95,71.62,85,97,11.95,overcast clouds,0,0
194,Mehtar Lam,AF,2021-09-16 16:49:32,34.6714,70.2094,82.65,16,0,1.01,clear sky,0,0
195,Lesozavodsk,RU,2021-09-16 16:49:33,45.4794,133.4244,54.45,96,96,4.41,overcast clouds,0,0
196,Rundu,NA,2021-09-16 16:49:33,-17.9333,19.7667,82.24,10,41,3.49,scattered clouds,0,0
197,Blackwater,AU,2021-09-16 16:43:32,-23.5833,148.8833,57.9,83,0,7.72,clear sky,0,0
198,Yulara,AU,2021-09-16 16:49:34,-25.2406,130.9889,82.24,30,75,12.66,broken clouds,0,0
199,Nanortalik,GL,2021-09-16 16:49:34,60.1432,-45.2371,37.53,78,100,2.86,overcast clouds,0,0
200,Nuuk,GL,2021-09-16 16:49:35,64.1835,-51.7216,38.01,56,75,9.22,broken clouds,0,0
201,Borovskoy,KZ,2021-09-16 16:49:35,53.8,64.15,45.79,53,19,7.94,few clouds,0,0
202,Jutai,BR,2021-09-16 16:49:36,-5.1833,-68.9,97.47,37,32,2.01,scattered clouds,0,0
203,Samarai,PG,2021-09-16 16:49:36,-10.6167,150.6667,77.23,77,89,19.3,overcast clouds,0,0
204,Ishigaki,JP,2021-09-16 16:49:36,24.3448,124.1572,82.51,80,9,12.12,clear sky,0,0
205,Hobyo,SO,2021-09-16 16:49:37,5.3505,48.5268,78.28,86,21,23.91,few clouds,0,0
206,Castro,BR,2021-09-16 16:49:37,-24.7911,-50.0119,59.34,92,100,6.62,overcast clouds,0,0
207,Tateyama,JP,2021-09-16 16:41:48,34.9833,139.8667,69.82,82,81,9.28,broken clouds,0,0
208,Hibbing,US,2021-09-16 16:49:38,47.4272,-92.9377,71.06,64,1,9.22,clear sky,0,0
209,Plettenberg Bay,ZA,2021-09-16 16:49:38,-34.0527,23.3716,52.92,77,48,8.43,scattered clouds,0,0
210,Thaba Nchu,ZA,2021-09-16 16:49:39,-29.2093,26.839,58.78,44,3,16.46,clear sky,0,0
211,Tiksi,RU,2021-09-16 16:49:39,71.6872,128.8694,41.31,80,100,4.85,overcast clouds,0,0
212,Ucluelet,CA,2021-09-16 16:48:49,48.9329,-125.5528,52.11,67,42,6.64,scattered clouds,0,0
213,Bikaner,IN,2021-09-16 16:49:40,28.0167,73.3,92.07,45,4,9.71,clear sky,0,0
214,Loralai,PK,2021-09-16 16:49:40,30.3705,68.598,80.67,33,0,6.31,clear sky,0,0
215,Conde,BR,2021-09-16 16:49:41,-7.2597,-34.9075,85.46,62,40,18.41,scattered clouds,0,0
216,Dondo,MZ,2021-09-16 16:49:41,-19.6094,34.7431,76.51,83,10,9.13,clear sky,0,0
217,Shenjiamen,CN,2021-09-16 16:42:52,29.9576,122.298,75.24,80,94,17.11,overcast clouds,0,0
218,Tazovskiy,RU,2021-09-16 16:49:42,67.4667,78.7,38.95,90,96,8.79,overcast clouds,0,0
219,Ust-Kuyga,RU,2021-09-16 16:43:19,70.0167,135.6,43.02,84,100,6.55,light rain,0,0
220,Bentiu,SS,2021-09-16 16:49:42,9.2333,29.8333,76.26,85,57,2.44,light rain,0,0
221,Ouadda,CF,2021-09-16 16:49:43,8.0777,22.4007,71.6,93,94,4.99,light rain,0,0
222,Coupar Angus,GB,2021-09-16 16:49:43,56.5455,-3.2677,66.33,69,20,1.01,few clouds,0,0
223,Presidencia Roque Saenz Pena,AR,2021-09-16 16:49:43,-26.7852,-60.4388,68.95,35,84,4.16,broken clouds,0,0
224,Morristown,US,2021-09-16 16:41:17,36.214,-83.2949,81.75,61,40,4.61,scattered clouds,0,0
225,Jacareacanga,BR,2021-09-16 16:49:44,-6.2222,-57.7528,101.01,28,11,3.31,few clouds,0,0
226,Namibe,AO,2021-09-16 16:49:44,-15.1961,12.1522,63.99,84,9,6.26,clear sky,0,0
227,Muisne,EC,2021-09-16 16:44:03,0.6,-80.0333,82.51,83,93,9.82,overcast clouds,0,0
228,Strezhevoy,RU,2021-09-16 16:40:35,60.7333,77.5889,51.78,98,100,7.7,overcast clouds,0,0
229,Cayenne,GF,2021-09-16 16:49:45,4.9333,-52.3333,91.44,74,20,5.99,few clouds,0,0
230,Jiwani,PK,2021-09-16 16:49:45,25.05,61.7417,82.15,81,2,7.76,clear sky,0,0
231,Okhotsk,RU,2021-09-16 16:49:46,59.3833,143.3,49.35,90,96,12.53,overcast clouds,0,0
232,Kurilsk,RU,2021-09-16 16:49:47,45.2333,147.8833,49.51,85,98,7.05,overcast clouds,0,0
233,Caceres,ES,2021-09-16 16:49:47,39.522,-6.3748,82.8,38,0,3.53,clear sky,0,0
234,Cairns,AU,2021-09-16 16:40:29,-16.9167,145.7667,64.35,82,55,6.91,broken clouds,0,0
235,Necochea,AR,2021-09-16 16:49:47,-38.5473,-58.7368,66.34,46,0,9.46,clear sky,0,0
236,Acari,PE,2021-09-16 16:49:48,-15.4311,-74.6158,73.06,53,55,9.28,broken clouds,0,0
237,Berlevag,NO,2021-09-16 16:49:48,70.8578,29.0864,41.0,75,0,4.61,clear sky,0,0
238,Leningradskiy,RU,2021-09-16 16:49:49,69.3833,178.4167,22.48,86,81,8.19,broken clouds,0,0
239,Bati,ET,2021-09-16 16:49:49,11.1833,40.0167,74.17,42,89,5.14,overcast clouds,0,0
240,Bela Vista,BR,2021-09-16 16:49:50,-22.1089,-56.5211,95.02,35,67,4.34,broken clouds,0,0
241,San Felipe,VE,2021-09-16 16:42:04,10.3399,-68.7425,94.01,38,51,4.94,broken clouds,0,0
242,Vila Franca Do Campo,PT,2021-09-16 16:49:50,37.7167,-25.4333,73.81,70,80,4.38,broken clouds,0,0
243,Lacolle,CA,2021-09-16 16:49:51,45.0834,-73.3659,73.92,66,57,4.83,broken clouds,0,0
244,Kaohsiung,TW,2021-09-16 16:49:51,22.6163,120.3133,84.15,87,40,5.01,scattered clouds,0,0
245,Ust-Kut,RU,2021-09-16 16:49:51,56.7938,105.7672,38.79,87,100,2.53,overcast clouds,0,0
246,Khorixas,NA,2021-09-16 16:49:52,-20.3667,14.9667,75.96,13,2,11.97,clear sky,0,0
247,Ancud,CL,2021-09-16 16:49:52,-41.8697,-73.8203,53.42,95,100,15.88,light rain,0,0
248,Constitucion,CL,2021-09-16 16:48:08,-35.3333,-72.4167,60.85,60,0,14.45,clear sky,0,0
249,Ko Samui,TH,2021-09-16 16:49:53,9.5357,99.9357,82.29,73,87,3.53,overcast clouds,0,0
250,Haines Junction,CA,2021-09-16 16:49:53,60.7522,-137.5108,40.95,75,100,0.0,overcast clouds,0,0
251,Lakewood,US,2021-09-16 16:47:53,39.7047,-105.0814,88.43,18,2,1.01,clear sky,0,0
252,Fairbanks,US,2021-09-16 16:49:54,64.8378,-147.7164,42.3,80,40,0.0,scattered clouds,0,0
253,Georgetown,MY,2021-09-16 16:47:47,5.4112,100.3354,82.33,86,20,4.61,few clouds,0,0
254,Hamamatsu,JP,2021-09-16 16:46:23,34.7,137.7333,74.01,79,100,4.0,overcast clouds,0,0
255,Campeche,MX,2021-09-16 16:49:46,19.0,-90.5,97.97,38,42,2.8,scattered clouds,0,0
256,Dongsheng,CN,2021-09-16 16:49:55,39.8161,109.9776,57.69,57,0,7.31,clear sky,0,0
257,Alofi,NU,2021-09-16 16:49:56,-19.0595,-169.9187,71.49,94,50,5.75,scattered clouds,0,0
258,Lompoc,US,2021-09-16 16:49:56,34.6391,-120.4579,58.68,91,90,0.0,mist,0,0
259,Oksfjord,NO,2021-09-16 16:49:56,70.2396,22.3479,46.58,74,100,6.35,overcast clouds,0,0
260,Vieste,IT,2021-09-16 16:49:57,41.8825,16.175,82.9,66,100,9.98,overcast clouds,0,0
261,Touros,BR,2021-09-16 16:49:57,-5.1989,-35.4608,85.1,62,8,19.66,clear sky,0,0
262,Naze,JP,2021-09-16 16:47:33,28.3667,129.4833,78.66,86,100,13.49,overcast clouds,0,0
263,Puerto Maldonado,PE,2021-09-16 16:49:58,-12.6,-69.1833,77.4,65,75,3.44,broken clouds,0,0
264,Lac Du Bonnet,CA,2021-09-16 16:49:58,50.2536,-96.0612,53.08,86,100,7.4,overcast clouds,0,0
265,Novyy Urengoy,RU,2021-09-16 16:49:58,66.0833,76.6333,42.15,79,100,11.18,overcast clouds,0,0
266,Sitka,US,2021-09-16 16:47:49,57.0531,-135.33,51.69,62,90,17.27,light rain,0,0
267,Gondar,ET,2021-09-16 16:49:59,12.6,37.4667,58.78,82,18,4.45,light rain,0,0
268,Durban,ZA,2021-09-16 16:47:35,-29.8579,31.0292,60.93,99,100,5.99,moderate rain,0,0
269,Pevek,RU,2021-09-16 16:50:00,69.7008,170.3133,31.57,88,100,14.25,light snow,0,0
270,Golpayegan,IR,2021-09-16 16:50:00,33.4537,50.2884,75.4,11,0,3.6,clear sky,0,0
271,Muros,ES,2021-09-16 16:50:01,42.7762,-9.0603,77.16,58,1,14.97,clear sky,0,0
272,Wahiawa,US,2021-09-16 16:48:36,21.5028,-158.0236,75.52,85,2,3.33,clear sky,0,0
273,Half Moon Bay,US,2021-09-16 16:45:39,37.4636,-122.4286,65.05,79,90,1.99,mist,0,0
274,Djenne,ML,2021-09-16 16:50:01,13.9061,-4.5533,94.3,38,80,9.48,broken clouds,0,0
275,Lofthus,NO,2021-09-16 16:50:02,59.9468,10.8018,52.21,1,93,5.19,overcast clouds,0,0
276,Sain Alto,MX,2021-09-16 16:46:13,23.5833,-103.25,66.72,61,99,3.62,overcast clouds,0,0
277,Hasaki,JP,2021-09-16 16:50:03,35.7333,140.8333,66.6,65,100,9.95,overcast clouds,0,0
278,Kargasok,RU,2021-09-16 16:50:03,59.0556,80.8572,52.61,91,99,10.11,overcast clouds,0,0
279,Bhachau,IN,2021-09-16 16:50:04,23.2833,70.35,87.64,70,53,7.78,broken clouds,0,0
280,Bulungu,CD,2021-09-16 16:50:04,-4.55,18.6,76.57,73,94,1.36,overcast clouds,0,0
281,Qaqortoq,GL,2021-09-16 16:50:04,60.7167,-46.0333,37.65,76,100,4.74,overcast clouds,0,0
282,Kruisfontein,ZA,2021-09-16 16:50:05,-34.0033,24.7314,53.89,70,67,10.33,broken clouds,0,0
283,Portland,US,2021-09-16 16:46:43,45.5234,-122.6762,58.89,69,1,1.99,clear sky,0,0
284,Los Llanos De Aridane,ES,2021-09-16 16:42:55,28.6585,-17.9182,74.95,87,20,14.97,few clouds,0,0
285,Dali,CN,2021-09-16 16:50:06,25.7,100.1833,62.8,95,100,5.12,overcast clouds,0,0
286,Lebu,CL,2021-09-16 16:50:06,-37.6167,-73.65,54.79,67,1,10.2,clear sky,0,0
287,Clinton,US,2021-09-16 16:47:07,42.587,-82.9199,78.22,67,40,1.01,scattered clouds,0,0
288,San Pedro,PH,2021-09-16 16:50:07,14.35,121.0167,78.35,93,90,6.91,heavy intensity rain,0,0
289,Isparta,TR,2021-09-16 16:50:07,38.0,31.0,59.76,79,66,6.89,broken clouds,0,0
290,Kemijarvi,FI,2021-09-16 16:50:07,66.7131,27.4306,41.04,71,85,3.04,overcast clouds,0,0
291,La Ronge,CA,2021-09-16 16:40:36,55.1001,-105.2842,44.85,76,90,10.36,overcast clouds,0,0
292,Visnes,NO,2021-09-16 16:50:08,59.3556,5.2242,59.58,88,75,5.75,broken clouds,0,0
293,Abaetetuba,BR,2021-09-16 16:50:08,-1.7181,-48.8825,87.84,72,48,4.03,scattered clouds,0,0
294,Mount Isa,AU,2021-09-16 16:50:09,-20.7333,139.5,58.77,47,3,0.0,clear sky,0,0
295,Palmer,US,2021-09-16 16:45:56,42.1584,-72.3287,75.78,71,75,3.0,broken clouds,0,0
296,Mehamn,NO,2021-09-16 16:50:10,71.0357,27.8492,42.8,74,25,10.04,scattered clouds,0,0
297,Zyryanka,RU,2021-09-16 16:50:10,65.75,150.85,42.1,83,76,8.9,broken clouds,0,0
298,Lavrentiya,RU,2021-09-16 16:50:11,65.5833,-171.0,34.02,73,70,7.0,broken clouds,0,0
299,Yarada,IN,2021-09-16 16:43:10,17.65,83.2667,82.72,89,40,2.3,thunderstorm,0,0
300,Lima,PE,2021-09-16 16:50:11,-12.0432,-77.0282,61.05,77,90,4.61,overcast clouds,0,0
301,Faya,SA,2021-09-16 16:50:12,18.3851,42.4509,69.91,50,37,4.79,scattered clouds,0,0
302,Klamath Falls,US,2021-09-16 16:39:46,42.2249,-121.7817,59.86,49,1,16.11,clear sky,0,0
303,Selikhino,RU,2021-09-16 16:50:12,50.3672,137.4996,53.58,95,100,12.8,overcast clouds,0,0
304,Selfoss,IS,2021-09-16 16:50:13,63.9331,-20.9971,52.68,95,100,5.41,overcast clouds,0,0
305,Mapimi,MX,2021-09-16 16:50:13,25.8167,-103.85,80.17,43,9,6.71,clear sky,0,0
306,Alseseca,MX,2021-09-16 16:50:13,20.2314,-98.0444,69.98,83,100,4.65,overcast clouds,0,0
307,Salinas,US,2021-09-16 16:48:06,36.6777,-121.6555,58.84,82,90,3.44,overcast clouds,0,0
308,Bilibino,RU,2021-09-16 16:50:14,68.0546,166.4372,19.76,96,86,0.51,overcast clouds,0,0
309,Sembe,CG,2021-09-16 16:50:14,1.6481,14.5806,74.35,90,100,3.18,light rain,0,0
310,Iqaluit,CA,2021-09-16 16:50:15,63.7506,-68.5145,38.93,81,75,3.44,light intensity shower rain,0,0
311,Fuzhou,CN,2021-09-16 16:50:15,26.0614,119.3061,82.29,95,59,1.79,light rain,0,0
312,Vawkavysk,BY,2021-09-16 16:50:16,53.1561,24.4513,58.69,93,100,12.41,overcast clouds,0,0
313,Kantunilkin,MX,2021-09-16 16:50:16,21.0917,-87.45,87.64,48,82,7.83,broken clouds,0,0
314,Tautira,PF,2021-09-16 16:50:16,-17.7333,-149.15,75.22,75,30,18.01,scattered clouds,0,0
315,Kavieng,PG,2021-09-16 16:50:17,-2.5744,150.7967,80.49,77,97,9.8,light rain,0,0
316,Smithers,CA,2021-09-16 16:48:22,54.7804,-127.1743,39.52,81,75,4.61,broken clouds,0,0
317,Kangaatsiaq,GL,2021-09-16 16:41:32,68.3065,-53.4641,31.96,58,7,17.07,clear sky,0,0
318,Coyula,MX,2021-09-16 16:50:18,20.6333,-103.2,72.19,70,51,2.84,broken clouds,0,0
319,Jackson,US,2021-09-16 16:46:43,42.4165,-122.8345,61.0,59,1,0.0,clear sky,0,0
320,Torbay,CA,2021-09-16 16:45:40,47.6666,-52.7314,63.39,88,90,20.71,light rain,0,0
321,Clyde River,CA,2021-09-16 16:50:19,70.4692,-68.5914,32.23,69,75,10.36,broken clouds,0,0
322,Champerico,GT,2021-09-16 16:41:04,14.3,-91.9167,91.76,72,93,7.81,overcast clouds,0,0
323,Vanavara,RU,2021-09-16 16:50:19,60.34,102.2797,36.82,92,86,1.83,overcast clouds,0,0
324,Notse,TG,2021-09-16 16:50:19,6.95,1.1667,79.88,85,97,1.66,moderate rain,0,0
325,Southbridge,US,2021-09-16 16:50:20,42.0751,-72.0334,74.3,84,95,5.44,overcast clouds,0,0
326,Bima,ID,2021-09-16 16:50:20,-8.4667,118.7167,75.85,92,95,4.72,overcast clouds,0,0
327,Kasongo-Lunda,CD,2021-09-16 16:50:21,-6.4667,16.8167,75.29,84,83,6.89,heavy intensity rain,0,0
328,Saldanha,ZA,2021-09-16 16:50:21,-33.0117,17.9442,60.85,68,0,24.54,clear sky,0,0
329,Chapais,CA,2021-09-16 16:50:21,49.7834,-74.8492,60.58,44,5,8.5,clear sky,0,0
330,El Alto,PE,2021-09-16 16:50:22,-4.2714,-81.2147,69.46,68,34,14.97,scattered clouds,0,0
331,Misratah,LY,2021-09-16 16:42:02,32.3754,15.0925,81.27,51,0,13.2,clear sky,0,0
332,San Javier,ES,2021-09-16 16:50:23,37.8063,-0.8374,85.62,63,20,8.01,few clouds,0,0
333,Marzuq,YE,2021-09-16 16:40:45,14.4,46.4667,85.89,16,91,1.95,overcast clouds,0,0
334,Saint Anthony,US,2021-09-16 16:45:39,45.0205,-93.218,80.31,58,1,8.01,clear sky,0,0
335,Nishihara,JP,2021-09-16 16:50:24,26.1842,127.7558,81.68,83,40,6.91,scattered clouds,0,0
336,College,US,2021-09-16 16:50:24,64.8569,-147.8028,43.29,80,75,0.0,broken clouds,0,0
337,Moroni,KM,2021-09-16 16:50:24,-11.7022,43.2551,78.8,69,75,8.05,broken clouds,0,0
338,Umm Kaddadah,SD,2021-09-16 16:50:25,13.6017,26.6876,97.21,16,75,11.88,broken clouds,0,0
339,Kamaishi,JP,2021-09-16 16:50:25,39.2667,141.8833,59.81,77,100,5.75,overcast clouds,0,0
340,Narsaq,GL,2021-09-16 16:50:25,60.9167,-46.05,37.65,77,100,4.14,overcast clouds,0,0
341,Chimbote,PE,2021-09-16 16:50:26,-9.0853,-78.5783,67.64,69,78,9.98,broken clouds,0,0
342,Sinnamary,GF,2021-09-16 16:50:26,5.3833,-52.95,85.08,70,7,9.4,clear sky,0,0
343,Takoradi,GH,2021-09-16 16:50:27,4.8845,-1.7554,79.16,81,73,9.66,broken clouds,0,0
344,Moss Vale,AU,2021-09-16 16:50:27,-34.55,150.3833,41.14,99,59,2.55,broken clouds,0,0
345,Oktyabrskoye,RU,2021-09-16 16:50:27,43.0645,44.7417,64.54,68,75,8.95,broken clouds,0,0
346,Walvis Bay,NA,2021-09-16 16:42:05,-22.9575,14.5053,57.09,80,2,13.24,clear sky,0,0
347,Kuala Terengganu,MY,2021-09-16 16:50:28,5.3302,103.1408,78.75,89,20,3.44,few clouds,0,0
348,Warri,NG,2021-09-16 16:50:28,5.5167,5.75,81.61,76,85,6.89,light rain,0,0
349,Verkhnyaya Sinyachikha,RU,2021-09-16 16:50:29,57.976,61.6673,39.6,94,97,9.98,light rain,0,0
350,Phenix City,US,2021-09-16 16:50:29,32.471,-85.0008,77.58,86,90,11.5,overcast clouds,0,0
351,Bilma,NE,2021-09-16 16:50:30,18.6853,12.9164,98.2,12,30,5.08,scattered clouds,0,0
352,Santa Rosa,PH,2021-09-16 16:41:57,14.3122,121.1114,79.11,93,100,4.56,heavy intensity rain,0,0
353,Luderitz,NA,2021-09-16 16:50:30,-26.6481,15.1594,66.0,42,13,30.96,few clouds,0,0
354,Shubarshi,KZ,2021-09-16 16:50:31,48.5872,57.1869,59.27,32,41,8.23,scattered clouds,0,0
355,Khorramabad,IR,2021-09-16 16:50:31,33.4878,48.3558,76.15,19,1,1.41,clear sky,0,0
356,Faanui,PF,2021-09-16 16:50:31,-16.4833,-151.75,78.22,75,13,22.88,few clouds,0,0
357,Ghatal,IN,2021-09-16 16:50:32,22.6667,87.7167,79.21,92,96,5.91,overcast clouds,0,0
358,Lysva,RU,2021-09-16 16:50:32,58.1086,57.8053,37.29,98,100,8.72,overcast clouds,0,0
359,Lazaro Cardenas,MX,2021-09-16 16:49:56,17.9583,-102.2,82.94,74,97,3.11,overcast clouds,0,0
360,Tagusao,PH,2021-09-16 16:50:33,9.1924,117.8141,80.24,79,98,1.88,overcast clouds,0,0
361,Evanston,US,2021-09-16 16:50:33,42.0411,-87.6901,80.53,41,1,4.0,clear sky,0,0
362,Bangui,CF,2021-09-16 16:50:34,4.3612,18.555,73.72,87,92,1.68,overcast clouds,0,0
363,Kasane,BW,2021-09-16 16:50:34,-17.8167,25.15,83.95,17,24,2.46,few clouds,0,0
364,Avera,US,2021-09-16 16:50:35,33.194,-82.5271,74.86,93,100,8.1,light rain,0,0
365,Belaya Gora,RU,2021-09-16 16:50:35,68.5333,146.4167,37.92,85,82,3.49,broken clouds,0,0
366,Pontivy,FR,2021-09-16 16:50:36,48.0,-3.0,70.38,59,51,8.01,broken clouds,0,0
367,Changji,CN,2021-09-16 16:50:36,44.0167,87.3167,75.99,29,0,4.47,light rain,0,0
368,Petropavlovsk-Kamchatskiy,RU,2021-09-16 16:50:36,53.0452,158.6483,37.99,100,0,8.95,clear sky,0,0
369,Flinders,AU,2021-09-16 16:50:37,-34.5833,150.8552,49.21,84,52,1.01,broken clouds,0,0
370,Tecolutla,MX,2021-09-16 16:50:37,20.4833,-97.0167,83.55,79,100,7.11,overcast clouds,0,0
371,Shache,CN,2021-09-16 16:50:38,38.4167,77.2406,76.55,19,28,7.02,scattered clouds,0,0
372,Kostyantynivka,UA,2021-09-16 16:50:38,48.5277,37.7069,58.5,42,2,5.14,clear sky,0,0
373,Port Moresby,PG,2021-09-16 16:50:39,-9.4431,147.1797,76.42,78,40,11.5,scattered clouds,0,0
374,Saint-Augustin,CA,2021-09-16 16:50:39,51.226,-58.6502,64.89,47,71,19.71,broken clouds,0,0
375,Muswellbrook,AU,2021-09-16 16:50:39,-32.2667,150.9,40.33,97,1,1.39,clear sky,0,0
376,Labuhan,ID,2021-09-16 16:50:40,-6.8844,112.2051,79.45,80,99,6.08,overcast clouds,0,0
377,Anjar,IN,2021-09-16 16:50:40,23.1333,70.0167,86.34,72,53,7.92,broken clouds,0,0
378,Ures,MX,2021-09-16 16:50:41,29.4333,-110.4,88.52,49,3,3.4,clear sky,0,0
379,Victoria,HK,2021-09-16 16:49:00,22.2855,114.1577,85.32,73,89,4.12,light rain,0,0
380,Severo-Kurilsk,RU,2021-09-16 16:50:41,50.6789,156.125,48.31,82,1,8.25,clear sky,0,0
381,Adelaide,AU,2021-09-16 16:50:42,-34.9333,138.6,73.18,25,75,5.99,broken clouds,0,0
382,Talnakh,RU,2021-09-16 16:50:42,69.4865,88.3972,34.99,91,84,3.13,broken clouds,0,0
383,Castle Douglas,GB,2021-09-16 16:50:42,54.9409,-3.9278,61.34,82,72,7.4,broken clouds,0,0
384,Ostrovnoy,RU,2021-09-16 16:50:43,68.0531,39.5131,44.44,93,89,12.08,overcast clouds,0,0
385,Ndele,CF,2021-09-16 16:50:43,8.4109,20.6473,74.79,93,97,3.06,light rain,0,0
386,Beinasco,IT,2021-09-16 16:50:44,45.0231,7.5839,77.31,94,90,0.0,fog,0,0
387,Ulaangom,MN,2021-09-16 16:50:44,49.9811,92.0667,54.07,40,100,3.0,overcast clouds,0,0
388,Bandarbeyla,SO,2021-09-16 16:50:44,9.4942,50.8122,77.59,86,77,27.22,broken clouds,0,0
389,Akersberga,SE,2021-09-16 16:50:45,59.4794,18.2997,53.06,76,100,13.15,overcast clouds,0,0
390,Kilindoni,TZ,2021-09-16 16:50:45,-7.9139,39.6668,76.78,77,55,12.91,broken clouds,0,0
391,Port Hedland,AU,2021-09-16 16:50:46,-20.3167,118.5667,66.25,94,47,5.75,scattered clouds,0,0
392,Palizada,MX,2021-09-16 16:50:46,18.25,-92.0833,91.18,56,58,3.65,broken clouds,0,0
393,Linjiang,CN,2021-09-16 16:50:46,41.8069,126.9078,59.7,97,100,2.19,light rain,0,0
394,Marfino,RU,2021-09-16 16:42:21,55.7028,37.3822,46.54,81,75,4.47,broken clouds,0,0
395,Turan,VN,2021-09-16 16:50:47,16.0678,108.2208,78.78,83,20,3.44,few clouds,0,0
396,Aksarka,RU,2021-09-16 16:50:47,66.5606,67.7975,38.98,86,100,13.8,overcast clouds,0,0
397,Carutapera,BR,2021-09-16 16:50:48,-1.195,-46.02,81.93,81,35,8.61,scattered clouds,0,0
398,Tessalit,ML,2021-09-16 16:50:48,20.1986,1.0114,104.7,10,38,3.2,scattered clouds,0,0
399,Vardo,NO,2021-09-16 16:50:49,70.3705,31.1107,41.2,81,75,4.61,broken clouds,0,0
400,Pierre,US,2021-09-16 16:50:49,44.3683,-100.351,79.05,64,1,8.01,clear sky,0,0
401,Sheridan,US,2021-09-16 16:50:49,44.8333,-106.9173,70.18,32,1,5.01,clear sky,0,0
402,Honiara,SB,2021-09-16 16:46:23,-9.4333,159.95,76.06,89,87,4.99,overcast clouds,0,0
403,Irbeyskoye,RU,2021-09-16 16:50:50,55.6428,95.4522,44.22,97,99,3.51,overcast clouds,0,0
404,Rio Gallegos,AR,2021-09-16 16:44:24,-51.6226,-69.2181,39.25,87,90,18.41,light rain,0,0
405,El Reten,CO,2021-09-16 16:50:51,10.6114,-74.2682,85.91,51,84,4.43,broken clouds,0,0
406,Husavik,IS,2021-09-16 16:50:51,66.0449,-17.3389,58.91,63,100,14.56,overcast clouds,0,0
407,Terme,TR,2021-09-16 16:50:52,41.2092,36.9739,64.33,82,100,8.03,light rain,0,0
408,Korostyshiv,UA,2021-09-16 16:50:52,50.3172,29.0563,59.65,58,88,7.49,overcast clouds,0,0
409,Axim,GH,2021-09-16 16:50:52,4.8699,-2.2405,79.7,77,46,7.58,scattered clouds,0,0
410,Sibu,MY,2021-09-16 16:50:53,2.3,111.8167,77.31,94,40,0.0,scattered clouds,0,0
411,Hovd,MN,2021-09-16 16:50:53,48.0056,91.6419,58.21,34,100,2.48,overcast clouds,0,0
412,Tyler,US,2021-09-16 16:50:53,32.3513,-95.3011,85.42,65,20,11.5,few clouds,0,0
413,Grand-Santi,GF,2021-09-16 16:50:54,4.25,-54.3833,97.7,33,16,2.86,few clouds,0,0
414,Pangai,TO,2021-09-16 16:50:54,-19.8,-174.35,77.25,82,4,16.84,clear sky,0,0
415,Shahreza,IR,2021-09-16 16:50:55,32.0339,51.8794,73.98,7,0,4.79,clear sky,0,0
416,Anloga,GH,2021-09-16 16:50:55,5.7947,0.8973,84.42,81,86,6.31,light rain,0,0
417,Iracoubo,GF,2021-09-16 16:50:55,5.4802,-53.2011,86.22,65,3,9.64,clear sky,0,0
418,Portobelo,PA,2021-09-16 16:50:56,9.55,-79.65,89.85,78,62,3.62,broken clouds,0,0
419,Khipro,PK,2021-09-16 16:50:56,25.8285,69.3772,96.67,42,10,11.83,clear sky,0,0
420,Mizan Teferi,ET,2021-09-16 16:50:57,6.9833,35.5833,62.17,96,92,2.77,light rain,0,0
421,Zlitan,LY,2021-09-16 16:50:57,32.4674,14.5687,83.14,49,0,17.49,clear sky,0,0
422,Garden City,US,2021-09-16 16:49:00,42.3256,-83.331,77.9,59,40,8.05,scattered clouds,0,0
423,Zemio,CF,2021-09-16 16:50:58,5.0314,25.1361,71.06,95,98,6.13,moderate rain,0,0
424,Coquimbo,CL,2021-09-16 16:50:58,-29.9533,-71.3436,56.93,76,75,9.22,broken clouds,0,0
425,Semey,KZ,2021-09-16 16:50:59,50.4111,80.2275,50.22,53,0,2.24,clear sky,0,0
426,Sibolga,ID,2021-09-16 16:41:26,1.7427,98.7792,76.95,85,26,3.15,scattered clouds,0,0
427,Iclod,RO,2021-09-16 16:50:59,46.9833,23.8,77.29,48,99,2.15,overcast clouds,0,0
428,Kamenka,RU,2021-09-16 16:43:51,51.3223,42.7678,47.39,60,2,4.74,clear sky,0,0
429,Pokhara,NP,2021-09-16 16:51:00,28.2333,83.9833,69.15,86,100,6.15,overcast clouds,0,0
430,Kaeo,NZ,2021-09-16 16:50:09,-35.1,173.7833,58.32,95,56,7.18,broken clouds,0,0
431,Kangra,IN,2021-09-16 16:51:00,32.1,76.2667,73.51,82,7,5.17,clear sky,0,0
432,Whitehorse,CA,2021-09-16 16:48:22,60.7161,-135.0538,44.1,75,90,11.5,overcast clouds,0,0
433,Bairiki,KI,2021-09-16 16:51:01,1.3292,172.9752,80.6,78,40,9.22,scattered clouds,0,0
434,Renfrew,GB,2021-09-16 16:51:01,55.872,-4.3925,63.48,87,90,8.05,overcast clouds,0,0
435,Mangrol,IN,2021-09-16 16:51:02,21.1167,70.1167,80.29,87,100,13.76,overcast clouds,0,0
436,Hofn,IS,2021-09-16 16:51:03,64.2539,-15.2082,53.62,94,90,14.97,overcast clouds,0,0
437,Keroka,KE,2021-09-16 16:51:03,-0.7758,34.9453,55.27,97,92,2.75,light rain,0,0
438,Charagua,BO,2021-09-16 16:51:04,-19.8,-63.2167,69.37,29,93,5.61,overcast clouds,0,0
439,Ler,SS,2021-09-16 16:51:04,8.3018,30.1418,73.11,94,63,2.64,moderate rain,0,0
440,Blagodarnyy,RU,2021-09-16 16:51:05,45.0978,43.4364,68.77,32,100,10.11,light rain,0,0
441,Port Lincoln,AU,2021-09-16 16:51:05,-34.7333,135.8667,58.37,79,17,12.15,few clouds,0,0
442,Sai Buri,TH,2021-09-16 16:51:06,6.7013,101.6168,77.85,84,58,5.41,broken clouds,0,0
443,Padang,ID,2021-09-16 16:51:06,-0.9492,100.3543,78.85,89,87,4.27,overcast clouds,0,0
444,Madang,PG,2021-09-16 16:51:07,-5.2246,145.7966,75.0,91,97,2.86,overcast clouds,0,0
445,Jacmel,HT,2021-09-16 16:51:07,18.2342,-72.5347,91.24,60,20,6.35,few clouds,0,0
446,Wanning,CN,2021-09-16 16:51:07,18.8003,110.3967,79.12,86,96,7.45,overcast clouds,0,0
447,Rocha,UY,2021-09-16 16:51:08,-34.4833,-54.3333,68.22,45,0,4.74,clear sky,0,0
448,Luang Prabang,LA,2021-09-16 16:51:08,19.8856,102.1347,73.27,98,100,2.1,overcast clouds,0,0
449,Mazara Del Vallo,IT,2021-09-16 16:51:09,37.6641,12.588,82.35,83,54,16.11,broken clouds,0,0
450,Doka,SD,2021-09-16 16:43:45,13.5167,35.7667,78.93,74,29,2.21,scattered clouds,0,0
451,Christchurch,NZ,2021-09-16 16:51:09,-43.5333,172.6333,40.32,93,40,5.75,scattered clouds,0,0
452,Nanning,CN,2021-09-16 16:51:10,22.8167,108.3167,77.45,91,95,2.71,light rain,0,0
453,Nhulunbuy,AU,2021-09-16 16:51:10,-12.2333,136.7667,72.21,88,40,0.0,scattered clouds,0,0
454,Zwijndrecht,NL,2021-09-16 16:51:11,51.8175,4.6333,68.23,70,16,3.0,few clouds,0,0
455,Ambilobe,MG,2021-09-16 16:51:11,-13.2,49.05,74.61,67,78,4.76,broken clouds,0,0
456,Kariba,ZW,2021-09-16 16:51:11,-16.5167,28.8,82.63,28,41,3.33,scattered clouds,0,0
457,Mlonggo,ID,2021-09-16 16:51:12,-6.5333,110.7,79.61,79,34,4.76,scattered clouds,0,0
458,Hashtrud,IR,2021-09-16 16:51:12,37.4779,47.0508,68.83,17,0,9.13,clear sky,0,0
459,Sao Goncalo Do Sapucai,BR,2021-09-16 16:51:13,-21.8922,-45.5953,92.73,24,21,5.95,few clouds,0,0
460,Nouadhibou,MR,2021-09-16 16:51:13,20.931,-17.0347,84.18,54,1,18.41,sand,0,0
461,Pangnirtung,CA,2021-09-16 16:51:14,66.1451,-65.7125,37.4,65,90,10.36,overcast clouds,0,0
462,Bridlington,GB,2021-09-16 16:51:14,54.0831,-0.1919,71.78,80,100,1.92,overcast clouds,0,0
463,Izmit,TR,2021-09-16 16:51:15,40.7669,29.9169,72.27,71,33,5.95,scattered clouds,0,0
464,Goundam,ML,2021-09-16 16:51:15,16.4145,-3.6708,96.51,32,45,6.67,scattered clouds,0,0
465,Bismarck,US,2021-09-16 16:48:31,46.8083,-100.7837,69.87,44,1,13.8,clear sky,0,0
466,Koster,ZA,2021-09-16 16:51:16,-25.863,26.8976,63.68,13,0,14.14,clear sky,0,0
467,Ketchikan,US,2021-09-16 16:51:16,55.3422,-131.6461,52.27,82,90,9.22,moderate rain,0,0
468,San Carlos De Bariloche,AR,2021-09-16 16:51:17,-41.1456,-71.3082,55.15,41,0,16.11,clear sky,0,0
469,Koping,SE,2021-09-16 16:51:17,59.514,15.9926,51.89,84,100,8.7,moderate rain,0,0
470,Pascagoula,US,2021-09-16 16:47:53,30.3658,-88.5561,85.41,80,20,8.05,few clouds,0,0
471,Jaguaribe,BR,2021-09-16 16:51:18,-5.8906,-38.6219,97.99,22,1,9.37,clear sky,0,0
472,Solok,ID,2021-09-16 16:51:18,-0.7918,100.6593,74.35,97,63,1.52,broken clouds,0,0
473,Rabo De Peixe,PT,2021-09-16 16:51:18,37.8,-25.5833,72.91,73,20,11.5,few clouds,0,0
474,Puerto Baquerizo Moreno,EC,2021-09-16 16:51:19,-0.9,-89.6,69.37,82,69,13.98,broken clouds,0,0
475,Mitu,CO,2021-09-16 16:51:19,1.1983,-70.1733,85.17,66,65,0.96,broken clouds,0,0
476,Yokadouma,CM,2021-09-16 16:51:20,3.5167,15.05,76.1,80,100,0.94,overcast clouds,0,0
477,Broome,US,2021-09-16 16:51:20,42.2506,-75.833,73.2,63,0,1.99,clear sky,0,0
478,Golyshmanovo,RU,2021-09-16 16:51:21,56.3979,68.3728,48.2,64,92,4.83,overcast clouds,0,0
479,Candabong,PH,2021-09-16 16:51:21,9.7343,124.5383,76.71,88,100,4.54,overcast clouds,0,0
480,Calama,CL,2021-09-16 16:46:51,-22.4667,-68.9333,72.09,9,20,17.27,few clouds,0,0
481,Tarnos,FR,2021-09-16 16:51:22,43.5417,-1.4628,73.85,73,20,4.61,few clouds,0,0
482,Zambezi,ZM,2021-09-16 16:51:22,-13.5432,23.1047,85.01,17,26,5.88,scattered clouds,0,0
483,Buala,SB,2021-09-16 16:51:22,-8.145,159.5921,78.69,84,86,5.82,overcast clouds,0,0
484,Mayo,US,2021-09-16 16:51:23,38.8876,-76.5119,84.74,86,90,3.0,overcast clouds,0,0
485,Pundaguitan,PH,2021-09-16 16:51:23,6.3711,126.1689,81.09,79,98,12.44,overcast clouds,0,0
486,Skibbereen,IE,2021-09-16 16:51:24,51.55,-9.2667,62.4,88,100,15.37,overcast clouds,0,0
487,Maningrida,AU,2021-09-16 16:51:24,-12.0667,134.2667,70.56,77,7,7.74,clear sky,0,0
488,Rudbar,AF,2021-09-16 16:51:24,30.15,62.6,86.02,9,0,2.06,clear sky,0,0
489,Tilichiki,RU,2021-09-16 16:44:02,60.4667,166.1,38.48,84,81,1.79,broken clouds,0,0
490,Quimperle,FR,2021-09-16 16:41:59,47.8667,-3.55,68.99,68,0,12.66,clear sky,0,0
491,Uruzgan,AF,2021-09-16 16:51:25,32.8333,66.0,70.02,9,0,0.63,clear sky,0,0
492,Maragogi,BR,2021-09-16 16:47:04,-9.0122,-35.2225,80.96,68,25,12.62,scattered clouds,0,0
493,Port Augusta,AU,2021-09-16 16:41:36,-32.5,137.7667,73.54,26,26,10.45,scattered clouds,0,0
494,Carndonagh,IE,2021-09-16 16:51:26,55.25,-7.2667,64.02,93,97,11.36,overcast clouds,0,0
495,Boyolangu,ID,2021-09-16 16:51:26,-8.1181,111.8935,74.79,92,55,2.82,broken clouds,0,0
496,Itaituba,BR,2021-09-16 16:41:45,-4.2761,-55.9836,95.16,52,20,9.22,few clouds,0,0
497,Repalle,IN,2021-09-16 16:51:27,16.0167,80.85,84.42,73,91,2.06,overcast clouds,0,0
498,Kremenki,RU,2021-09-16 16:51:27,54.885,37.1261,47.3,72,100,4.83,overcast clouds,0,0
499,Quisqueya,DO,2021-09-16 16:51:28,18.5554,-69.4081,89.46,63,75,10.87,broken clouds,0,0
500,Lenger,KZ,2021-09-16 16:51:28,42.183,69.8839,65.64,23,0,5.21,clear sky,0,0
501,Brae,GB,2021-09-16 16:51:28,60.3964,-1.353,55.31,87,76,8.39,broken clouds,0,0
502,Sironj,IN,2021-09-16 16:51:29,24.1,77.7,73.15,94,99,9.53,overcast clouds,0,0
503,Nizhniy Odes,RU,2021-09-16 16:51:29,63.6445,54.856,42.06,87,100,4.41,overcast clouds,0,0
504,San Vicente,AR,2021-09-16 16:47:16,-26.6167,-54.1333,60.64,97,100,5.82,moderate rain,0,0
505,Pringsewu,ID,2021-09-16 16:51:30,-5.3582,104.9744,73.76,93,5,0.25,clear sky,0,0
506,Paamiut,GL,2021-09-16 16:41:50,61.994,-49.6678,37.26,75,100,7.96,overcast clouds,0,0
507,Roma,US,2021-09-16 16:43:20,43.2128,-75.4557,74.89,73,20,6.91,few clouds,0,0
508,Spassk,RU,2021-09-16 16:51:30,52.747,87.7545,50.31,78,81,0.69,broken clouds,0,0
509,Quixada,BR,2021-09-16 16:51:31,-4.9714,-39.0153,97.79,23,0,9.95,clear sky,0,0
510,Wonthaggi,AU,2021-09-16 16:51:31,-38.6044,145.5913,47.71,89,4,7.9,clear sky,0,0
511,Diego De Almagro,CL,2021-09-16 16:51:32,-26.3667,-70.05,77.31,10,0,9.42,clear sky,0,0
512,Vila Velha,BR,2021-09-16 16:51:32,-20.3297,-40.2925,78.75,73,20,13.8,few clouds,0,0
513,Mayumba,GA,2021-09-16 16:51:32,-3.432,10.6554,77.14,84,75,6.8,broken clouds,0,0
514,Shieli,KZ,2021-09-16 16:51:33,44.1667,66.75,74.61,20,0,4.25,clear sky,0,0
515,Sola,VU,2021-09-16 16:51:33,-13.8833,167.55,78.21,79,44,13.38,scattered clouds,0,0
516,Morant Bay,JM,2021-09-16 16:51:34,17.8815,-76.4093,89.22,70,77,10.18,broken clouds,0,0
517,Ust-Nera,RU,2021-09-16 16:51:34,64.5667,143.2,44.35,66,20,3.98,few clouds,0,0
518,Krasnaya Gorka,RU,2021-09-16 16:51:34,55.1962,56.6673,42.78,70,79,11.95,broken clouds,0,0
519,Vetovo,BG,2021-09-16 16:51:35,43.7,26.2667,74.23,33,4,3.53,clear sky,0,0
520,Joshimath,IN,2021-09-16 16:51:35,30.5667,79.5667,68.29,90,90,1.1,overcast clouds,0,0
521,Evensk,RU,2021-09-16 16:51:36,61.95,159.2333,44.89,86,90,2.84,overcast clouds,0,0
522,Stromness,GB,2021-09-16 16:51:36,58.965,-3.296,57.45,82,49,11.01,scattered clouds,0,0
523,Saint Augustine,US,2021-09-16 16:51:36,29.8947,-81.3145,88.05,71,75,10.36,broken clouds,0,0
524,Atambua,ID,2021-09-16 16:51:37,-9.1061,124.8925,72.55,86,65,4.92,broken clouds,0,0
525,Teya,RU,2021-09-16 16:41:51,60.3778,92.6267,37.54,88,99,3.2,overcast clouds,0,0
526,Kerman,IR,2021-09-16 16:51:37,30.2832,57.0788,78.66,9,0,4.61,clear sky,0,0
527,Opuwo,NA,2021-09-16 16:41:48,-18.0607,13.84,82.31,12,2,13.6,clear sky,0,0
528,Bireun,ID,2021-09-16 16:51:38,5.203,96.7009,78.24,84,74,4.03,broken clouds,0,0
529,Saskylakh,RU,2021-09-16 16:51:38,71.9167,114.0833,34.38,97,100,19.57,light rain,0,0
530,Sao Joao Da Barra,BR,2021-09-16 16:51:39,-21.6403,-41.0511,78.89,72,64,14.72,broken clouds,0,0
531,Bosaso,SO,2021-09-16 16:51:39,11.2842,49.1816,89.98,57,14,5.06,few clouds,0,0
532,Kuito,AO,2021-09-16 16:49:52,-12.3833,16.9333,75.25,17,16,2.1,few clouds,0,0
533,Kudahuvadhoo,MV,2021-09-16 16:51:40,2.6708,72.8944,83.53,71,83,6.82,broken clouds,0,0
534,Umm Lajj,SA,2021-09-16 16:51:40,25.0213,37.2685,82.92,70,0,10.38,clear sky,0,0
535,Krutaya Gorka,RU,2021-09-16 16:51:41,55.3649,73.2231,60.48,80,92,6.2,overcast clouds,0,0
536,Wuzhou,CN,2021-09-16 16:51:41,23.4833,111.3167,75.33,90,73,0.29,light rain,0,0
537,Scottsbluff,US,2021-09-16 16:51:41,41.8666,-103.6672,90.79,19,1,8.05,clear sky,0,0
538,Bairnsdale,AU,2021-09-16 16:51:42,-37.8333,147.6167,40.05,95,22,4.0,few clouds,0,0
539,Nueva Loja,EC,2021-09-16 16:51:42,0.0847,-76.8828,81.88,83,75,4.61,broken clouds,0,0
540,Felanitx,ES,2021-09-16 16:51:42,39.4696,3.1483,84.0,56,96,5.19,overcast clouds,0,0
541,Chaman,PK,2021-09-16 16:51:43,30.9236,66.4512,77.32,11,0,1.77,clear sky,0,0
542,Hrubieszow,PL,2021-09-16 16:51:43,50.805,23.8925,67.06,73,100,5.48,overcast clouds,0,0
543,Bara,NG,2021-09-16 16:44:15,10.3744,10.7288,92.98,69,66,1.3,broken clouds,0,0
544,Hokitika,NZ,2021-09-16 16:51:44,-42.7167,170.9667,41.56,71,0,6.91,clear sky,0,0
545,Mizdah,LY,2021-09-16 16:51:44,31.4451,12.9801,84.36,23,0,9.73,clear sky,0,0
546,Kamina,CD,2021-09-16 16:51:45,-8.7386,24.9906,74.46,55,77,5.14,broken clouds,0,0
547,Erdenet,MN,2021-09-16 16:51:45,49.0333,104.0833,50.83,55,97,1.05,overcast clouds,0,0
548,Kariapatti,IN,2021-09-16 16:51:45,9.6751,78.0999,82.92,83,20,3.44,few clouds,0,0
549,Gidam,IN,2021-09-16 16:51:46,18.9833,81.4,73.02,95,100,1.72,overcast clouds,0,0
550,Orlik,RU,2021-09-16 16:51:46,52.5178,99.825,43.14,68,76,0.65,broken clouds,0,0
551,Wanxian,CN,2021-09-16 16:51:47,30.8039,108.3897,75.67,95,100,0.58,light rain,0,0
552,Egvekinot,RU,2021-09-16 16:51:47,66.3167,-179.1667,28.24,95,100,2.57,light snow,0,0
553,Hanzhong,CN,2021-09-16 16:51:47,33.0728,107.0303,63.52,95,100,1.79,overcast clouds,0,0
554,Fort Nelson,CA,2021-09-16 16:42:53,58.8053,-122.7002,42.39,87,75,6.91,broken clouds,0,0
555,Bubaque,GW,2021-09-16 16:42:44,11.2833,-15.8333,81.91,68,89,2.86,overcast clouds,0,0
556,Mecca,SA,2021-09-16 16:51:48,21.4267,39.8261,87.03,35,95,10.92,overcast clouds,0,0
557,Humberto De Campos,BR,2021-09-16 16:51:49,-2.5983,-43.4611,89.11,54,33,8.97,scattered clouds,0,0
558,Kemin,KG,2021-09-16 16:51:49,42.7846,75.6892,62.08,29,5,2.98,clear sky,0,0
559,Uige,AO,2021-09-16 16:51:49,-7.6087,15.0613,74.75,73,93,3.74,moderate rain,0,0
560,Krasnotorka,UA,2021-09-16 16:51:50,48.682,37.5327,58.12,42,4,5.79,clear sky,0,0
561,Phayakkhaphum Phisai,TH,2021-09-16 16:51:50,15.5163,103.1937,78.04,87,99,5.84,light rain,0,0
562,Kamiiso,JP,2021-09-16 16:51:51,41.8167,140.65,61.0,75,99,8.57,overcast clouds,0,0
563,Birjand,IR,2021-09-16 16:51:51,32.8663,59.2211,77.47,7,0,6.91,clear sky,0,0
564,Ashqelon,IL,2021-09-16 16:51:51,31.6693,34.5715,79.83,61,0,6.69,clear sky,0,0
565,Skovorodino,RU,2021-09-16 16:51:52,53.9833,123.9167,36.95,82,14,0.69,few clouds,0,0
566,Ariguani,CO,2021-09-16 16:51:52,10.25,-74.0,93.96,44,50,6.42,scattered clouds,0,0
567,Langsa,ID,2021-09-16 16:51:53,4.4683,97.9683,75.25,93,51,2.48,broken clouds,0,0
568,Slavgorod,RU,2021-09-16 16:51:53,52.9978,78.6449,61.52,32,61,10.4,broken clouds,0,0
569,Mount Gambier,AU,2021-09-16 16:51:53,-37.8333,140.7667,53.51,62,73,14.97,broken clouds,0,0
570,Tres Lagoas,BR,2021-09-16 16:49:03,-20.7511,-51.6783,99.88,23,2,6.6,clear sky,0,0
571,Damietta,EG,2021-09-16 16:51:54,31.4165,31.8133,80.49,64,0,12.33,clear sky,0,0
572,Port Shepstone,ZA,2021-09-16 16:51:54,-30.7414,30.455,60.53,83,100,18.97,moderate rain,0,0
573,Nortelandia,BR,2021-09-16 16:51:55,-14.4547,-56.8028,104.58,18,2,4.7,clear sky,0,0
574,Umba,RU,2021-09-16 16:51:55,66.6871,34.3429,42.46,80,100,11.01,overcast clouds,0,0
575,Tovuz,AZ,2021-09-16 16:48:53,40.9922,45.6289,77.79,49,0,8.14,clear sky,0,0
576,Mesaria,GR,2021-09-16 16:51:56,36.3985,25.4459,79.0,44,0,9.22,clear sky,0,0
577,Psebay,RU,2021-09-16 16:51:56,44.1234,40.8107,58.77,98,100,2.68,moderate rain,0,0
578,Cape Coast,GH,2021-09-16 16:51:57,5.1053,-1.2466,78.57,84,87,10.31,light rain,0,0
579,Innisfail,AU,2021-09-16 16:42:31,-17.5333,146.0333,63.5,80,43,3.42,scattered clouds,0,0
580,Puteyets,RU,2021-09-16 16:51:57,65.1716,57.091,42.24,75,98,10.85,overcast clouds,0,0
581,Kousseri,CM,2021-09-16 16:51:58,12.0769,15.0306,91.36,40,40,14.97,dust,0,0
582,Wewak,PG,2021-09-16 16:51:58,-3.5534,143.6268,76.75,90,99,8.25,overcast clouds,0,0
583,Hamilton,US,2021-09-16 16:48:37,39.1834,-84.5333,80.37,78,90,1.01,overcast clouds,0,0
584,Kenai,US,2021-09-16 16:51:59,60.5544,-151.2583,45.09,92,90,20.71,overcast clouds,0,0
585,Sakakah,SA,2021-09-16 16:51:59,29.9697,40.2064,96.37,17,0,11.52,clear sky,0,0
586,Sumbe,AO,2021-09-16 16:51:59,-11.2061,13.8437,72.73,81,18,7.0,few clouds,0,0
587,Batagay-Alyta,RU,2021-09-16 16:52:00,67.8006,130.4114,44.74,89,100,4.29,light rain,0,0
588,Solone,UA,2021-09-16 16:52:00,48.2081,34.8721,59.05,37,6,6.15,clear sky,0,0
589,Berdigestyakh,RU,2021-09-16 16:52:00,62.0989,126.6992,38.48,97,100,12.26,moderate rain,0,0
590,Lucapa,AO,2021-09-16 16:52:01,-8.4192,20.7447,82.13,43,93,3.71,overcast clouds,0,0
591,Ambositra,MG,2021-09-16 16:52:01,-20.5167,47.25,57.4,94,6,3.29,clear sky,0,0
592,Comodoro Rivadavia,AR,2021-09-16 16:52:02,-45.8667,-67.5,64.26,36,0,18.41,clear sky,0,0
593,Tirlyanskiy,RU,2021-09-16 16:52:02,54.2109,58.5806,37.67,81,58,10.07,broken clouds,0,0
594,Pacific Grove,US,2021-09-16 16:43:44,36.6177,-121.9166,58.42,87,90,3.0,overcast clouds,0,0
595,Chilliwack,CA,2021-09-16 16:49:55,49.1747,-121.9443,56.84,77,11,1.01,few clouds,0,0
596,Kiama,AU,2021-09-16 16:52:03,-34.6833,150.8667,49.37,89,52,4.94,broken clouds,0,0
597,Salalah,OM,2021-09-16 16:52:04,17.0151,54.0924,80.15,90,99,4.12,overcast clouds,0,0
598,Port Hardy,CA,2021-09-16 16:52:04,50.6996,-127.4199,46.58,100,75,4.61,broken clouds,0,0
599,Dobroye,RU,2021-09-16 16:52:05,52.8678,39.8109,46.99,68,12,5.55,few clouds,0,0
600,Nantucket,US,2021-09-16 16:48:14,41.2835,-70.0995,73.26,87,75,11.5,broken clouds,0,0
601,Seoul,KR,2021-09-16 16:52:05,37.5683,126.9778,69.31,77,0,4.61,moderate rain,0,0
602,Bathsheba,BB,2021-09-16 16:52:06,13.2167,-59.5167,92.01,62,40,19.57,scattered clouds,0,0
603,Broken Hill,AU,2021-09-16 16:52:06,-31.95,141.4333,62.31,31,23,14.97,few clouds,0,0
604,Srikakulam,IN,2021-09-16 16:52:07,18.3,83.9,81.99,83,73,2.93,broken clouds,0,0
605,Murdochville,CA,2021-09-16 16:52:07,48.9583,-65.5006,50.88,51,15,11.68,few clouds,0,0
606,Birigui,BR,2021-09-16 16:52:07,-21.2886,-50.34,84.31,42,0,16.11,clear sky,0,0
607,Beira,MZ,2021-09-16 16:51:14,-19.8436,34.8389,77.09,83,75,13.8,broken clouds,0,0
608,Belmonte,BR,2021-09-16 16:52:08,-15.8631,-38.8828,84.2,61,8,9.64,clear sky,0,0
609,Owando,CG,2021-09-16 16:52:09,-0.4819,15.8999,73.29,91,97,4.25,overcast clouds,0,0
610,Sedalia,US,2021-09-16 16:47:49,38.7045,-93.2283,81.86,61,1,6.91,clear sky,0,0
611,Prince Rupert,CA,2021-09-16 16:52:09,54.3161,-130.3201,51.49,79,40,5.75,scattered clouds,0,0
612,Beian,NO,2021-09-16 16:52:09,63.6559,9.5683,56.01,88,75,3.44,light rain,0,0
613,Bambanglipuro,ID,2021-09-16 16:44:20,-7.95,110.2833,76.39,88,46,7.99,scattered clouds,0,0
614,Poum,NC,2021-09-16 16:52:10,-20.2333,164.0167,70.18,60,90,17.98,overcast clouds,0,0
615,Sydney,AU,2021-09-16 16:48:57,-33.8679,151.2073,51.1,91,20,8.05,few clouds,0,0
616,Beringovskiy,RU,2021-09-16 16:52:11,63.05,179.3167,39.79,71,100,4.23,overcast clouds,0,0
617,Oussouye,SN,2021-09-16 16:52:11,12.485,-16.5469,91.58,80,100,2.13,overcast clouds,0,0
618,Ambon,ID,2021-09-16 16:42:37,-3.6954,128.1814,77.14,94,40,3.44,scattered clouds,0,0
619,Atasu,KZ,2021-09-16 16:44:35,48.6814,71.6433,65.93,24,1,10.83,clear sky,0,0
620,Bataipora,BR,2021-09-16 16:52:12,-22.2953,-53.2711,86.94,47,70,6.15,broken clouds,0,0
621,Port-Gentil,GA,2021-09-16 16:52:12,-0.7193,8.7815,77.81,81,38,13.22,scattered clouds,0,0
622,Deputatskiy,RU,2021-09-16 16:52:13,69.3,139.9,35.8,84,71,1.99,broken clouds,0,0
623,Gat,IL,2021-09-16 16:52:13,31.61,34.7642,78.82,7,1,6.64,clear sky,0,0
624,Acajutla,SV,2021-09-16 16:52:14,13.5928,-89.8275,84.31,69,86,6.76,overcast clouds,0,0
625,Cordele,US,2021-09-16 16:52:14,31.9635,-83.7824,78.12,83,90,6.91,overcast clouds,0,0
626,Okitipupa,NG,2021-09-16 16:52:14,6.5047,4.7839,81.14,76,70,5.14,broken clouds,0,0
627,Bageshwar,IN,2021-09-16 16:52:15,29.85,79.7667,69.46,89,100,1.9,overcast clouds,0,0
628,Kupang,ID,2021-09-16 16:52:15,-10.1667,123.5833,78.44,81,74,9.31,broken clouds,0,0
629,Filiatra,GR,2021-09-16 16:52:16,37.15,21.5833,78.15,79,4,9.64,clear sky,0,0
630,Lagos,NG,2021-09-16 16:47:58,6.5833,3.75,84.52,83,92,6.04,overcast clouds,0,0
631,Date,JP,2021-09-16 16:52:16,42.4681,140.8681,60.93,73,100,10.45,overcast clouds,0,0
632,Maniitsoq,GL,2021-09-16 16:52:17,65.4167,-52.9,37.42,49,100,3.96,overcast clouds,0,0
633,Jadu,LY,2021-09-16 16:52:17,31.953,12.0261,85.69,17,0,5.82,clear sky,0,0
634,Muncar,ID,2021-09-16 16:52:17,-8.4333,114.3333,76.24,90,100,4.63,overcast clouds,0,0
635,Shambu,ET,2021-09-16 16:52:18,9.5667,37.1,52.09,89,64,1.7,light rain,0,0
636,Atchison,US,2021-09-16 16:50:58,39.563,-95.1216,83.82,43,0,14.27,clear sky,0,0
637,Wahpeton,US,2021-09-16 16:52:18,46.2652,-96.6059,77.81,60,4,10.94,clear sky,0,0
638,Monte Patria,CL,2021-09-16 16:52:19,-30.6919,-70.9467,75.79,22,0,7.23,clear sky,0,0
639,Longkou,CN,2021-09-16 16:52:19,37.6508,120.3286,70.32,86,67,8.05,light rain,0,0
640,Dawei,MM,2021-09-16 16:43:18,14.0833,98.2,75.69,95,100,3.11,light rain,0,0
641,Miyako,JP,2021-09-16 16:52:20,39.6367,141.9525,56.8,82,97,7.05,overcast clouds,0,0
642,Port Macquarie,AU,2021-09-16 16:50:32,-31.4333,152.9167,46.36,88,9,5.28,clear sky,0,0
643,Fukue,JP,2021-09-16 16:52:21,32.6881,128.8419,78.71,89,94,27.74,light rain,0,0
644,Vostok,RU,2021-09-16 16:52:21,46.4856,135.8833,49.12,98,100,4.0,overcast clouds,0,0
645,Dunedin,NZ,2021-09-16 16:52:21,-45.8742,170.5036,41.81,79,99,4.47,overcast clouds,0,0
646,Byron Bay,AU,2021-09-16 16:51:26,-28.65,153.6167,58.95,86,33,7.76,scattered clouds,0,0
647,Sunland Park,US,2021-09-16 16:52:22,31.7965,-106.58,86.86,38,1,1.01,clear sky,0,0
648,Prince George,CA,2021-09-16 16:52:22,53.9166,-122.753,47.25,77,1,11.5,clear sky,0,0
649,Luleburgaz,TR,2021-09-16 16:52:23,41.4039,27.3592,72.77,47,43,10.51,scattered clouds,0,0
650,Mathbaria,BD,2021-09-16 16:43:53,22.2876,89.9593,80.83,85,100,4.05,overcast clouds,0,0
651,Esmeralda,CU,2021-09-16 16:52:23,21.8525,-78.1169,91.98,48,7,2.86,clear sky,0,0
652,Nancha,CN,2021-09-16 16:52:24,47.1333,129.2667,49.1,98,31,3.83,scattered clouds,0,0
653,Garissa,KE,2021-09-16 16:52:24,-0.4536,39.6401,85.19,46,74,20.36,broken clouds,0,0
654,Harper,LR,2021-09-16 16:52:25,4.375,-7.7169,79.29,82,91,11.54,light rain,0,0
655,Kondinskoye,RU,2021-09-16 16:52:25,59.6481,67.41,42.73,87,100,4.59,overcast clouds,0,0
656,Jalu,LY,2021-09-16 16:52:25,29.0331,21.5482,84.74,21,0,9.15,clear sky,0,0
657,Te Anau,NZ,2021-09-16 16:52:26,-45.4167,167.7167,31.24,95,73,3.4,broken clouds,0,0
658,Coruripe,BR,2021-09-16 16:52:26,-10.1256,-36.1756,81.88,62,11,12.57,few clouds,0,0
659,Chernaya Kholunitsa,RU,2021-09-16 16:52:27,58.8511,51.7154,39.72,98,100,10.8,overcast clouds,0,0
660,Alice Springs,AU,2021-09-16 16:52:27,-23.7,133.8833,83.75,17,40,18.41,scattered clouds,0,0
661,Yumen,CN,2021-09-16 16:52:27,40.2833,97.2,69.12,26,41,7.07,scattered clouds,0,0
662,Zhaozhou,CN,2021-09-16 16:52:28,45.6833,125.3167,53.78,74,0,3.53,clear sky,0,0
663,Launceston,AU,2021-09-16 16:47:50,-41.45,147.1667,40.64,89,27,1.01,scattered clouds,0,0
664,Goure,NE,2021-09-16 16:52:28,13.9835,10.2704,97.02,18,58,8.72,broken clouds,0,0
665,Sept-Iles,CA,2021-09-16 16:52:17,50.2001,-66.3821,65.05,58,75,5.01,broken clouds,0,0
666,Kurchum,KZ,2021-09-16 16:52:29,48.5722,83.6542,60.75,33,14,1.41,few clouds,0,0
667,Sokoto,NG,2021-09-16 16:52:29,13.0609,5.239,89.35,54,62,4.45,broken clouds,0,0
668,Ponta Delgada,PT,2021-09-16 16:52:30,37.7333,-25.6667,74.12,73,20,11.5,few clouds,0,0
669,Handan,CN,2021-09-16 16:52:30,36.6006,114.4678,67.48,90,100,7.27,light rain,0,0
670,Sulangan,PH,2021-09-16 16:52:31,11.1373,123.7228,80.33,79,100,10.8,overcast clouds,0,0
671,Lincoln,US,2021-09-16 16:50:28,40.8,-96.667,86.13,56,1,7.0,clear sky,0,0
672,Gladstone,AU,2021-09-16 16:52:31,-23.85,151.25,60.73,82,1,0.0,clear sky,0,0
673,Sampit,ID,2021-09-16 16:52:32,-2.5333,112.95,74.77,92,100,2.3,light rain,0,0
674,Camacha,PT,2021-09-16 16:52:32,33.0833,-16.3333,74.62,61,40,13.8,scattered clouds,0,0
675,Edd,ER,2021-09-16 16:52:33,13.9297,41.6925,89.4,64,100,11.68,overcast clouds,0,0
676,Havelock,US,2021-09-16 16:48:05,34.8791,-76.9013,86.02,81,75,13.8,broken clouds,0,0
677,Nioro,GM,2021-09-16 16:52:33,13.35,-15.75,77.81,90,100,3.47,overcast clouds,0,0
678,Xiaolingwei,CN,2021-09-16 16:52:33,32.0333,118.85,67.98,85,86,2.91,light rain,0,0
679,Gberia Fotombu,SL,2021-09-16 16:52:34,9.8833,-11.1667,76.14,92,91,3.89,moderate rain,0,0
680,Waipawa,NZ,2021-09-16 16:52:34,-41.4122,175.5153,45.45,76,100,18.16,light rain,0,0
681,Elblag,PL,2021-09-16 16:52:35,54.1522,19.4088,65.97,96,100,3.78,overcast clouds,0,0
682,Beaverlodge,CA,2021-09-16 16:52:35,55.2166,-119.4361,43.95,54,38,9.24,scattered clouds,0,0
683,Tomatlan,MX,2021-09-16 16:52:36,19.9333,-105.25,85.03,70,91,2.93,overcast clouds,0,0
684,Povenets,RU,2021-09-16 16:52:36,62.8487,34.8262,43.52,73,74,8.23,broken clouds,0,0
685,Bossier City,US,2021-09-16 16:52:36,32.516,-93.7321,78.98,71,90,14.97,overcast clouds,0,0
686,Itarema,BR,2021-09-16 16:52:37,-2.9248,-39.9167,88.2,56,6,20.78,clear sky,0,0
687,Yerofey Pavlovich,RU,2021-09-16 16:52:37,53.9667,121.9667,38.89,86,95,2.86,overcast clouds,0,0
688,Biltine,TD,2021-09-16 16:52:38,14.5333,20.9167,94.73,20,70,4.36,broken clouds,0,0
689,Chicama,PE,2021-09-16 16:52:38,-7.8447,-79.1469,59.54,60,98,9.73,overcast clouds,0,0
690,Samfya,ZM,2021-09-16 16:52:38,-11.3649,29.5565,79.0,26,35,4.74,scattered clouds,0,0
691,Canoinhas,BR,2021-09-16 16:52:39,-26.1772,-50.39,54.63,99,100,2.68,light rain,0,0
692,Nara,JP,2021-09-16 16:48:45,34.6851,135.8049,74.48,81,100,6.31,overcast clouds,0,0
693,Limoeiro Do Ajuru,BR,2021-09-16 16:52:39,-1.8953,-49.3806,87.21,60,39,5.21,scattered clouds,0,0
694,Upington,ZA,2021-09-16 16:52:40,-28.4478,21.2561,70.18,19,0,11.5,clear sky,0,0
695,Pombas,CV,2021-09-16 16:52:40,17.1503,-25.0201,83.98,78,63,15.03,broken clouds,0,0
696,Sawang Daen Din,TH,2021-09-16 16:49:03,17.4753,103.4575,77.22,90,100,1.9,overcast clouds,0,0
697,Gdov,RU,2021-09-16 16:52:41,58.7406,27.8122,46.78,65,55,8.84,broken clouds,0,0
698,Benguela,AO,2021-09-16 16:52:41,-12.5763,13.4055,72.05,79,26,6.67,scattered clouds,0,0
699,Alta Floresta,BR,2021-09-16 16:52:41,-9.8756,-56.0861,100.45,26,16,3.29,few clouds,0,0
700,Svetlyy,RU,2021-09-16 16:52:42,54.675,20.1347,59.05,96,100,4.54,overcast clouds,0,0
701,Acapulco,MX,2021-09-16 16:50:41,16.8634,-99.8901,83.84,75,76,3.96,broken clouds,0,0
702,Usinsk,RU,2021-09-16 16:52:42,65.9939,57.5281,42.42,69,100,18.39,overcast clouds,0,0
703,Capoterra,IT,2021-09-16 16:52:43,39.1763,8.9718,91.11,47,20,5.75,few clouds,0,0
704,Langres,FR,2021-09-16 16:52:43,47.8333,5.3333,68.85,75,66,5.68,broken clouds,0,0
705,Ewa Beach,US,2021-09-16 16:52:43,21.3156,-158.0072,78.75,78,20,4.61,few clouds,0,0
706,Pisco,PE,2021-09-16 16:52:44,-13.7,-76.2167,66.02,77,75,8.05,broken clouds,0,0
707,Ugoofaaru,MV,2021-09-16 16:52:44,5.6667,73.0,83.03,74,13,12.15,few clouds,0,0
708,Komsomolskiy,UZ,2021-09-16 16:52:45,40.4272,71.7189,79.52,22,0,2.3,clear sky,0,0
709,Yanji,CN,2021-09-16 16:52:45,42.9075,129.5078,56.98,96,100,0.96,overcast clouds,0,0
710,Hirara,JP,2021-09-16 16:52:45,24.8,125.2833,82.65,78,95,9.71,overcast clouds,0,0
711,Yabelo,ET,2021-09-16 16:52:46,4.8833,38.0833,67.91,58,100,6.76,overcast clouds,0,0
712,Muroto,JP,2021-09-16 16:52:46,33.2833,134.15,78.26,83,100,16.26,light rain,0,0
713,Guarapari,BR,2021-09-16 16:52:47,-20.6667,-40.4975,78.69,77,85,6.35,overcast clouds,0,0
714,Bagotville,AU,2021-09-16 16:52:47,-28.9833,153.4167,53.78,87,48,5.91,scattered clouds,0,0
715,General Roca,AR,2021-09-16 16:52:47,-39.0333,-67.5833,68.4,23,24,10.96,few clouds,0,0
716,Vidisha,IN,2021-09-16 16:52:48,23.5333,77.8167,76.33,95,100,6.51,overcast clouds,0,0
717,Port Hawkesbury,CA,2021-09-16 16:52:48,45.6169,-61.3485,67.8,84,90,5.01,overcast clouds,0,0
718,Crib Point,AU,2021-09-16 16:52:49,-38.35,145.2,47.91,92,0,9.64,clear sky,0,0
719,Matiari,PK,2021-09-16 16:52:49,25.5961,68.4467,95.0,55,0,16.84,clear sky,0,0
720,Yizheng,CN,2021-09-16 16:52:50,24.6706,103.4296,59.14,95,91,3.49,overcast clouds,0,0
721,Verkhnyaya Inta,RU,2021-09-16 16:52:50,65.9811,60.3094,42.24,72,99,5.91,overcast clouds,0,0
722,Wenling,CN,2021-09-16 16:52:50,28.3669,121.36,74.55,87,76,4.29,light rain,0,0
723,Sagua La Grande,CU,2021-09-16 16:52:51,22.8067,-80.0756,90.09,50,8,4.88,clear sky,0,0
724,Puerto Madryn,AR,2021-09-16 16:48:11,-42.7692,-65.0385,67.68,30,79,13.4,broken clouds,0,0
725,Urumqi,CN,2021-09-16 16:47:57,43.801,87.6005,72.55,29,0,4.47,clear sky,0,0
726,Tura,IN,2021-09-16 16:52:51,25.5198,90.2201,73.36,95,98,2.77,overcast clouds,0,0
727,Nalut,LY,2021-09-16 16:52:52,30.3333,10.85,90.59,14,0,10.2,clear sky,0,0
728,Ranot,TH,2021-09-16 16:52:52,7.7777,100.3213,81.07,76,99,2.91,overcast clouds,0,0
729,Bitung,ID,2021-09-16 16:52:53,1.4451,125.1824,76.05,88,100,4.21,overcast clouds,0,0
730,Labuan,MY,2021-09-16 16:52:53,5.2767,115.2417,77.16,88,20,0.0,few clouds,0,0
731,Riachao Das Neves,BR,2021-09-16 16:52:53,-11.7461,-44.91,99.75,11,0,7.74,clear sky,0,0
732,Anito,PH,2021-09-16 16:52:54,12.4497,125.2886,75.97,90,100,5.21,light rain,0,0
733,Krasnoturansk,RU,2021-09-16 16:52:54,54.3186,91.5639,52.59,73,100,4.88,overcast clouds,0,0
734,Tall Kayf,TR,2021-09-16 16:52:55,37.0833,41.0667,81.79,24,0,13.8,clear sky,0,0
735,Marquette,US,2021-09-16 16:52:55,46.5333,-87.6335,70.34,53,86,16.96,overcast clouds,0,0
736,Malakal,SS,2021-09-16 16:52:55,9.5334,31.6605,78.89,71,100,2.95,light rain,0,0
737,San Andres,CO,2021-09-16 16:48:39,12.5847,-81.7006,87.82,74,75,11.5,broken clouds,0,0
738,Suwalki,PL,2021-09-16 16:52:56,54.1118,22.9309,55.76,98,100,9.84,overcast clouds,0,0
739,Noumea,NC,2021-09-16 16:52:56,-22.2763,166.4572,60.78,74,26,6.96,scattered clouds,0,0
740,Bronnoysund,NO,2021-09-16 16:52:57,65.4625,12.1997,55.4,67,0,10.36,clear sky,0,0
741,Tramandai,BR,2021-09-16 16:52:57,-29.9847,-50.1336,62.71,54,47,7.58,scattered clouds,0,0
742,Zhigansk,RU,2021-09-16 16:52:57,66.7697,123.3711,41.41,66,100,7.81,overcast clouds,0,0
743,Storm Lake,US,2021-09-16 16:52:58,42.6411,-95.2097,81.36,57,1,23.11,clear sky,0,0
744,Oranjemund,NA,2021-09-16 16:52:59,-28.55,16.4333,56.91,74,16,21.5,few clouds,0,0
745,Maroantsetra,MG,2021-09-16 16:52:59,-15.4333,49.7333,72.07,87,95,6.13,light rain,0,0
746,Orikum,AL,2021-09-16 16:52:59,40.3253,19.4714,77.99,52,54,1.59,broken clouds,0,0
747,Fort Smith,US,2021-09-16 16:48:20,35.3859,-94.3986,84.69,71,1,3.0,clear sky,0,0
748,Severnoye,RU,2021-09-16 16:53:00,56.3491,78.3619,56.71,77,100,13.85,overcast clouds,0,0
749,Florianopolis,BR,2021-09-16 16:53:00,-27.6146,-48.5012,61.83,63,90,9.22,light rain,0,0
750,Krk,HR,2021-09-16 16:53:01,45.0258,14.5731,72.59,91,100,6.44,light rain,0,0
751,Monroe,US,2021-09-16 16:48:38,43.1501,-77.6831,74.66,66,40,5.75,scattered clouds,0,0
752,Capitan Bado,PY,2021-09-16 16:53:01,-23.2667,-55.5333,80.53,58,84,5.59,broken clouds,0,0
753,Cantavir,RS,2021-09-16 16:53:02,45.9219,19.7627,79.66,47,99,13.4,overcast clouds,0,0
754,Mabaruma,GY,2021-09-16 16:53:03,8.2,-59.7833,90.73,53,5,6.76,clear sky,0,0
755,Bichura,RU,2021-09-16 16:53:03,50.5881,107.6022,51.71,70,88,2.26,overcast clouds,0,0
756,Ballitoville,ZA,2021-09-16 16:53:04,-29.539,31.2144,60.17,94,90,9.22,moderate rain,0,0
757,Presque Isle,US,2021-09-16 16:53:04,46.6811,-68.0159,67.98,57,20,4.61,few clouds,0,0
758,Severo-Yeniseyskiy,RU,2021-09-16 16:53:04,60.3725,93.0408,34.54,88,100,4.12,overcast clouds,0,0
759,Bethanien,NA,2021-09-16 16:53:05,-26.502,17.1583,62.74,11,0,7.67,clear sky,0,0
760,Poya,NC,2021-09-16 16:53:05,-21.35,165.15,64.62,73,29,5.64,scattered clouds,0,0
761,Myitkyina,MM,2021-09-16 16:53:06,25.3833,97.4,76.42,89,83,1.99,broken clouds,0,0
762,Sharjah,AE,2021-09-16 16:53:06,25.3573,55.4033,94.98,66,0,4.61,clear sky,0,0
763,Kitimat,CA,2021-09-16 16:53:06,54.0524,-128.6534,48.9,53,98,2.1,overcast clouds,0,0
764,Raahe,FI,2021-09-16 16:53:07,64.6833,24.4833,44.69,67,91,4.76,overcast clouds,0,0
765,Devonport,AU,2021-09-16 16:53:07,-41.1667,146.35,45.0,71,44,6.51,scattered clouds,0,0
766,Smithfield,US,2021-09-16 16:53:08,41.922,-71.5495,71.11,92,75,3.0,broken clouds,0,0
767,Contamana,PE,2021-09-16 16:53:08,-7.3333,-75.0167,97.11,36,13,3.11,few clouds,0,0
768,Orangeburg,US,2021-09-16 16:53:09,33.4918,-80.8557,80.56,89,75,4.61,broken clouds,0,0
769,Garowe,SO,2021-09-16 16:53:09,8.4054,48.4845,89.91,37,99,16.4,light rain,0,0
770,Venancio Aires,BR,2021-09-16 16:51:13,-29.6064,-52.1919,68.27,51,52,5.79,broken clouds,0,0
771,Los Zacatones,MX,2021-09-16 16:53:09,22.95,-102.05,67.64,61,92,6.44,overcast clouds,0,0
772,Vaitape,PF,2021-09-16 16:53:10,-16.5167,-151.75,78.26,75,13,22.82,few clouds,0,0
773,Sao Geraldo Do Araguaia,BR,2021-09-16 16:53:11,-6.4006,-48.555,95.43,33,72,3.71,broken clouds,0,0
774,Shaoguan,CN,2021-09-16 16:53:11,24.8,113.5833,75.2,93,99,0.98,light rain,0,0
775,Boo,SE,2021-09-16 16:53:11,59.3333,18.2833,52.77,69,75,11.5,broken clouds,0,0
776,Marsh Harbour,BS,2021-09-16 16:53:12,26.5412,-77.0636,85.03,65,2,7.96,clear sky,0,0
777,Surt,LY,2021-09-16 16:53:12,31.2089,16.5887,79.86,51,0,10.8,clear sky,0,0
778,Otavi,NA,2021-09-16 16:53:13,-19.65,17.3333,81.73,13,34,9.69,scattered clouds,0,0
779,Mweka,CD,2021-09-16 16:53:14,-4.85,21.5667,73.62,80,98,3.42,light rain,0,0
780,Petropavlovka,RU,2021-09-16 16:53:14,50.6114,105.3196,50.25,70,36,4.07,scattered clouds,0,0
781,Ataco,CO,2021-09-16 16:53:14,3.5915,-75.3818,86.61,45,74,7.25,broken clouds,0,0
782,Nur,PL,2021-09-16 16:53:15,52.6683,22.3221,63.79,92,99,7.56,overcast clouds,0,0
783,Rio Grande,BR,2021-09-16 16:53:15,-32.035,-52.0986,69.91,54,0,4.79,clear sky,0,0
784,Tera,NE,2021-09-16 16:53:15,14.0078,0.7531,96.55,34,13,8.3,few clouds,0,0
785,Shelburne,CA,2021-09-16 16:53:16,44.0787,-80.2041,71.13,50,11,6.42,few clouds,0,0
786,Coos Bay,US,2021-09-16 16:50:52,43.3665,-124.2179,60.24,66,1,5.75,clear sky,0,0
787,Waddan,LY,2021-09-16 16:53:16,29.1614,16.139,86.31,21,0,10.45,clear sky,0,0
788,Sistranda,NO,2021-09-16 16:53:17,63.7256,8.834,55.9,84,100,6.06,light rain,0,0
789,Saint-Pierre,RE,2021-09-16 16:53:17,-21.3393,55.4781,73.04,70,20,4.61,few clouds,0,0
790,Trinidad,BO,2021-09-16 16:48:27,-14.8333,-64.9,80.58,50,98,11.5,overcast clouds,0,0
791,The Valley,AI,2021-09-16 16:53:07,18.217,-63.0578,85.1,89,20,3.44,few clouds,0,0
792,Vite,IN,2021-09-16 16:53:18,17.2833,74.55,69.13,92,52,8.9,broken clouds,0,0
793,Les Cayes,HT,2021-09-16 16:53:19,18.2,-73.75,88.02,62,36,13.76,scattered clouds,0,0
794,Krasnoselkup,RU,2021-09-16 16:53:19,65.7,82.4667,40.62,87,99,9.06,overcast clouds,0,0
795,Peniche,PT,2021-09-16 16:53:19,39.3558,-9.3811,80.55,76,1,17.65,clear sky,0,0
796,Ledyard,US,2021-09-16 16:53:20,41.4398,-72.0142,73.17,71,75,1.99,broken clouds,0,0
797,Wadena,US,2021-09-16 16:53:20,46.4425,-95.1361,75.09,73,40,13.8,scattered clouds,0,0
798,Alakurtti,RU,2021-09-16 16:53:21,66.9672,30.3491,40.62,72,100,3.85,overcast clouds,0,0
799,Puri,IN,2021-09-16 16:53:21,19.8,85.85,81.12,81,100,9.26,overcast clouds,0,0
800,Tongliao,CN,2021-09-16 16:53:21,43.6125,122.2653,56.57,73,32,3.33,scattered clouds,0,0
801,Zhigalovo,RU,2021-09-16 16:53:22,54.8097,105.1578,42.1,95,100,2.59,overcast clouds,0,0
802,Polunochnoye,RU,2021-09-16 16:53:22,60.8697,60.4153,39.6,98,100,10.4,overcast clouds,0,0
803,Mnogovershinnyy,RU,2021-09-16 16:53:23,53.9353,139.9242,51.17,80,100,9.64,light rain,0,0
804,Minab,IR,2021-09-16 16:53:23,27.1467,57.0801,96.3,51,1,3.38,clear sky,0,0
805,Sinop,TR,2021-09-16 16:53:23,41.7711,34.8709,56.46,90,100,1.52,overcast clouds,0,0
806,Kaluga,RU,2021-09-16 16:53:24,54.5,35.5,45.91,65,100,6.38,overcast clouds,0,0
807,Herrin,US,2021-09-16 16:53:24,37.8031,-89.0276,81.0,71,40,4.61,scattered clouds,0,0
808,Peleduy,RU,2021-09-16 16:53:25,59.6289,112.7406,36.95,98,98,4.34,overcast clouds,0,0
809,Yahualica,MX,2021-09-16 16:53:25,21.1333,-102.85,72.05,69,65,3.02,broken clouds,0,0
810,Linhares,BR,2021-09-16 16:53:25,-19.3911,-40.0722,86.77,42,80,7.87,broken clouds,0,0
811,Bereda,ES,2021-09-16 16:53:26,43.2686,-7.5406,71.58,73,3,5.3,clear sky,0,0
812,Barda,AZ,2021-09-16 16:53:26,40.3744,47.1267,79.16,38,0,4.65,clear sky,0,0
813,Bin Qirdan,TN,2021-09-16 16:53:27,33.1378,11.2197,86.56,42,19,13.15,few clouds,0,0
814,Shagonar,RU,2021-09-16 16:53:28,51.5333,92.8,54.28,64,91,1.25,overcast clouds,0,0
815,Pontes E Lacerda,BR,2021-09-16 16:51:15,-15.2261,-59.3353,100.78,24,27,5.77,scattered clouds,0,0
816,Porto Novo,BJ,2021-09-16 16:53:28,6.4965,2.6036,84.02,77,84,7.61,light rain,0,0
817,Navsari,IN,2021-09-16 16:53:28,20.9524,72.9324,80.49,86,37,12.37,scattered clouds,0,0
818,Ust-Kalmanka,RU,2021-09-16 16:53:29,52.1207,83.305,57.54,41,92,4.94,overcast clouds,0,0
819,Crawfordsville,US,2021-09-16 16:51:16,40.0411,-86.8745,78.62,50,40,9.22,scattered clouds,0,0
820,Kisesa,TZ,2021-09-16 16:53:29,-3.0833,34.15,80.67,38,83,6.64,broken clouds,0,0
821,San Lazaro,BZ,2021-09-16 16:53:30,18.0387,-88.6622,89.31,61,76,4.27,broken clouds,0,0
822,Kirakira,SB,2021-09-16 16:53:30,-10.4544,161.9205,77.65,84,75,8.12,broken clouds,0,0
823,Ryotsu,JP,2021-09-16 16:53:31,38.0833,138.4333,69.91,77,100,8.68,overcast clouds,0,0
824,Ardahan,TR,2021-09-16 16:53:31,41.1087,42.7022,51.87,93,29,5.97,scattered clouds,0,0
825,Edinet,MD,2021-09-16 16:53:32,48.1681,27.305,71.42,46,56,7.07,broken clouds,0,0
826,Dalby,AU,2021-09-16 16:53:32,-27.1833,151.2667,50.7,89,0,6.62,clear sky,0,0
827,Kattivakkam,IN,2021-09-16 16:53:33,13.2167,80.3167,86.09,78,98,8.95,overcast clouds,0,0
828,Gbadolite,CD,2021-09-16 16:53:33,4.2833,21.0167,73.22,91,99,4.14,overcast clouds,0,0
829,Staryy Nadym,RU,2021-09-16 16:53:33,65.6118,72.6842,41.5,78,100,13.69,overcast clouds,0,0
830,North Platte,US,2021-09-16 16:53:34,41.1239,-100.7654,81.01,58,0,3.0,clear sky,0,0
831,Spaichingen,DE,2021-09-16 16:53:34,48.0833,8.7167,63.46,76,99,3.42,overcast clouds,0,0
832,Bilsi,IN,2021-09-16 16:53:35,28.1333,78.9167,74.73,82,97,16.55,overcast clouds,0,0
833,Auki,SB,2021-09-16 16:53:35,-8.7676,160.7034,75.99,88,92,4.34,overcast clouds,0,0
834,Deyang,CN,2021-09-16 16:53:35,31.1302,104.382,68.27,96,100,3.6,light rain,0,0
835,Pochutla,MX,2021-09-16 16:53:36,15.7432,-96.4661,77.83,71,100,4.59,overcast clouds,0,0
836,Caravelas,BR,2021-09-16 16:53:36,-17.7125,-39.2481,82.02,56,14,9.66,few clouds,0,0
837,Matadi,CD,2021-09-16 16:53:37,-5.8167,13.45,84.58,60,84,7.94,broken clouds,0,0
838,Lavumisa,SZ,2021-09-16 16:53:37,-27.31,31.892,63.72,94,100,3.18,moderate rain,0,0
839,Lieksa,FI,2021-09-16 16:53:37,63.3167,30.0167,42.91,65,98,4.83,overcast clouds,0,0
840,Mehran,IR,2021-09-16 16:53:38,33.1222,46.1646,90.88,15,0,17.2,clear sky,0,0
841,Krasnovishersk,RU,2021-09-16 16:53:38,60.4078,57.082,41.65,98,100,9.42,overcast clouds,0,0
842,Caraballeda,VE,2021-09-16 16:53:38,10.6112,-66.8522,92.37,58,92,9.22,overcast clouds,0,0
843,Uden,NL,2021-09-16 16:53:39,51.6568,5.6126,69.1,72,23,2.3,few clouds,0,0
844,Nueve De Julio,AR,2021-09-16 16:53:39,-35.4444,-60.8831,70.45,41,0,9.89,clear sky,0,0
845,Ola,RU,2021-09-16 16:53:40,59.5833,151.2833,47.75,80,2,4.36,clear sky,0,0
846,Conceicao Do Araguaia,BR,2021-09-16 16:53:40,-8.2578,-49.2647,95.13,41,0,5.75,clear sky,0,0
847,Pouembout,NC,2021-09-16 16:53:40,-21.1333,164.9,63.93,74,57,4.32,broken clouds,0,0
848,Mortka,RU,2021-09-16 16:53:41,59.3322,66.0214,39.04,97,99,4.94,overcast clouds,0,0
849,Ngaoundere,CM,2021-09-16 16:53:41,7.3167,13.5833,68.02,90,97,3.53,moderate rain,0,0
