City_ID,City,Country,Date,Humidity,Lat,Lng,Max Temp,Cloudiness,Wind Speed
0,Yellowknife,CA,2021-09-23 19:53:06,87,62.456,-114.3525,46.92,75,6.91
1,Cayenne,GF,2021-09-23 19:57:56,76,4.9333,-52.3333,89.64,0,4.0
2,Castro,BR,2021-09-23 19:57:56,49,-24.7911,-50.0119,66.74,100,6.24
3,Busselton,AU,2021-09-23 19:57:57,80,-33.65,115.3333,44.1,0,10.31
4,Port Macquarie,AU,2021-09-23 19:57:57,63,-31.4333,152.9167,46.36,0,4.85
5,New Norfolk,AU,2021-09-23 19:57:57,80,-42.7826,147.0587,46.92,94,1.01
6,Ushuaia,AR,2021-09-23 19:57:58,34,-54.8,-68.3,49.66,40,20.71
7,Mataura,NZ,2021-09-23 19:57:58,71,-46.1927,168.8643,45.48,46,5.95
8,Cabo San Lucas,MX,2021-09-23 19:54:44,70,22.8909,-109.9124,96.51,5,6.15
9,Kupang,ID,2021-09-23 19:58:00,73,-10.1667,123.5833,74.75,74,6.64
10,Chuy,UY,2021-09-23 19:58:00,91,-33.6971,-53.4616,56.77,96,7.09
11,Punta Arenas,CL,2021-09-23 19:58:01,46,-53.15,-70.9167,50.11,40,20.71
12,Khailar,IN,2021-09-23 19:58:01,90,25.35,78.5333,77.34,8,4.18
13,Hualmay,PE,2021-09-23 19:58:02,72,-11.0964,-77.6139,66.97,29,9.55
14,Tasiilaq,GL,2021-09-23 19:58:02,61,65.6145,-37.6368,26.56,86,3.71
15,Vila Franca Do Campo,PT,2021-09-23 19:58:02,74,37.7167,-25.4333,70.21,42,8.75
16,Carnarvon,AU,2021-09-23 19:58:03,73,-24.8667,113.6333,68.07,0,20.71
17,Hilo,US,2021-09-23 19:57:22,68,19.7297,-155.09,82.62,55,3.0
18,Kaitangata,NZ,2021-09-23 19:58:03,66,-46.2817,169.8464,45.9,22,13.62
19,Rikitea,PF,2021-09-23 19:58:04,74,-23.1203,-134.9692,74.16,99,23.02
20,Qaanaaq,GL,2021-09-23 19:58:04,63,77.484,-69.3632,16.63,95,6.33
21,Saskylakh,RU,2021-09-23 19:58:05,98,71.9167,114.0833,33.62,100,11.39
22,Hithadhoo,MV,2021-09-23 19:58:05,83,-0.6,73.0833,80.96,100,20.62
23,Sechura,PE,2021-09-23 19:58:05,64,-5.5569,-80.8222,73.65,23,15.68
24,Mar Del Plata,AR,2021-09-23 19:58:06,88,-38.0023,-57.5575,57.22,90,3.44
25,Massaguet,TD,2021-09-23 19:58:06,61,12.4755,15.4365,82.44,90,10.83
26,Sao Filipe,CV,2021-09-23 19:58:07,79,14.8961,-24.4956,79.03,38,8.68
27,Makakilo City,US,2021-09-23 19:55:15,73,21.3469,-158.0858,81.68,40,8.05
28,Mahebourg,MU,2021-09-23 19:58:07,78,-20.4081,57.7,73.69,75,12.66
29,Avarua,CK,2021-09-23 19:58:08,64,-21.2078,-159.775,73.45,75,4.61
30,Chiang Klang,TH,2021-09-23 19:58:08,98,19.2938,100.8617,72.05,56,1.45
31,Hobart,AU,2021-09-23 19:58:08,79,-42.8794,147.3294,47.26,40,4.61
32,Iqaluit,CA,2021-09-23 19:58:09,80,63.7506,-68.5145,31.73,75,23.02
33,Bethanien,NA,2021-09-23 19:58:09,17,-26.502,17.1583,67.14,27,3.96
34,Panzhihua,CN,2021-09-23 19:58:10,90,26.5851,101.7128,67.08,9,2.26
35,Coquimbo,CL,2021-09-23 19:58:10,59,-29.9533,-71.3436,62.33,0,13.8
36,Souillac,MU,2021-09-23 19:58:11,78,-20.5167,57.5167,73.78,75,12.66
37,Caravelas,BR,2021-09-23 19:58:11,64,-17.7125,-39.2481,72.48,12,12.12
38,Katsuura,JP,2021-09-23 19:58:12,79,35.1333,140.3,75.31,100,11.72
39,Bayan,CN,2021-09-23 19:58:12,78,46.0833,127.4,44.55,6,7.74
40,Atuona,PF,2021-09-23 19:58:12,75,-9.8,-139.0333,78.1,12,17.4
41,Quzhou,CN,2021-09-23 19:58:13,87,28.9594,118.8686,72.66,98,3.51
42,Liling,CN,2021-09-23 19:58:13,79,27.6667,113.5,84.09,3,3.87
43,Dikson,RU,2021-09-23 19:58:14,66,73.5069,80.5464,34.32,61,6.51
44,Lebu,CL,2021-09-23 19:58:14,67,-37.6167,-73.65,56.26,3,13.24
45,Coahuayana,MX,2021-09-23 19:58:14,65,18.7333,-103.6833,89.02,9,6.24
46,Portland,US,2021-09-23 19:55:10,70,45.5234,-122.6762,73.51,80,1.99
47,Narsaq,GL,2021-09-23 19:58:15,49,60.9167,-46.05,39.38,0,9.55
48,Jamestown,US,2021-09-23 19:58:15,78,42.097,-79.2353,59.52,90,11.99
49,Barrow,US,2021-09-23 19:58:16,79,71.2906,-156.7887,28.65,99,5.93
50,Merauke,ID,2021-09-23 19:55:10,85,-8.4667,140.3333,75.9,97,12.33
51,Mount Gambier,AU,2021-09-23 19:58:16,87,-37.8333,140.7667,51.71,90,13.8
52,Adamas,GR,2021-09-23 19:58:17,57,36.7333,24.4333,67.55,2,25.7
53,Vaini,TO,2021-09-23 19:58:17,94,-21.2,-175.2,73.56,75,6.91
54,Puerto Ayora,EC,2021-09-23 19:58:18,84,-0.7393,-90.3518,76.96,80,10.56
55,Bethel,US,2021-09-23 19:58:18,81,41.3712,-73.414,79.09,90,3.0
56,Kodiak,US,2021-09-23 19:58:19,94,57.79,-152.4072,39.58,100,27.13
57,Alofi,NU,2021-09-23 19:58:19,73,-19.0595,-169.9187,75.09,28,9.22
58,Hermanus,ZA,2021-09-23 19:58:19,88,-34.4187,19.2345,58.89,89,12.5
59,Fortuna,US,2021-09-23 19:58:20,61,40.5982,-124.1573,87.42,97,3.0
60,Butaritari,KI,2021-09-23 19:58:20,75,3.0707,172.7902,82.58,3,15.64
61,Kapaa,US,2021-09-23 19:58:21,59,22.0752,-159.319,80.11,21,5.01
62,Upernavik,GL,2021-09-23 19:58:21,88,72.7868,-56.1549,28.53,100,9.37
63,Pevek,RU,2021-09-23 19:58:21,91,69.7008,170.3133,28.85,99,8.7
64,Tripoli,LY,2021-09-23 19:58:22,78,32.8752,13.1875,78.4,17,16.37
65,Albany,US,2021-09-23 19:56:23,71,42.6001,-73.9662,79.63,100,14.14
66,Hofn,IS,2021-09-23 19:58:22,93,64.2539,-15.2082,39.49,100,17.56
67,Ribeira Grande,PT,2021-09-23 19:58:23,68,38.5167,-28.7,72.0,20,13.8
68,Porto Novo,BJ,2021-09-23 19:58:23,86,6.4965,2.6036,80.42,77,5.32
69,Iskateley,RU,2021-09-23 19:58:24,91,67.6803,53.1512,40.14,100,8.61
70,Roanoke Rapids,US,2021-09-23 19:58:24,68,36.4615,-77.6542,79.21,1,6.91
71,Georgetown,MY,2021-09-23 19:57:28,86,5.4112,100.3354,80.89,20,0.0
72,Flinders,AU,2021-09-23 19:58:25,62,-34.5833,150.8552,62.19,5,1.01
73,Almaznyy,RU,2021-09-23 19:58:25,67,48.0448,40.045,51.94,100,2.3
74,Ostrovnoy,RU,2021-09-23 19:58:25,89,68.0531,39.5131,45.52,26,20.89
75,Guamuchil,MX,2021-09-23 19:57:53,42,25.4667,-108.1,97.75,9,5.5
76,Rozivka,UA,2021-09-23 19:58:26,76,46.9385,35.7724,47.35,18,6.71
77,Grand-Santi,GF,2021-09-23 19:58:27,36,4.25,-54.3833,94.24,49,3.78
78,Saldanha,ZA,2021-09-23 19:56:39,92,-33.0117,17.9442,59.05,100,2.06
79,San Pablo Tacachico,SV,2021-09-23 19:58:27,55,13.9756,-89.34,90.1,49,1.03
80,Udachnyy,RU,2021-09-23 19:58:27,83,66.4167,112.4,33.01,42,4.59
81,Grindavik,IS,2021-09-23 19:58:28,100,63.8424,-22.4338,45.07,90,9.22
82,Saint-Philippe,RE,2021-09-23 19:58:28,76,-21.3585,55.7679,69.35,38,11.95
83,Bluff,NZ,2021-09-23 19:58:29,68,-46.6,168.3333,45.81,72,23.91
84,Puerto Colombia,CO,2021-09-23 19:58:29,76,10.9878,-74.9547,89.69,100,6.42
85,Isangel,VU,2021-09-23 19:58:29,73,-19.55,169.2667,69.91,26,8.05
86,Abha,SA,2021-09-23 19:58:30,83,18.2164,42.5053,69.62,20,0.0
87,Sao Miguel Do Araguaia,BR,2021-09-23 19:58:30,12,-13.275,-50.1628,104.41,26,9.19
88,Ahuimanu,US,2021-09-23 19:58:31,72,21.4447,-157.8378,82.85,25,15.59
89,Nantucket,US,2021-09-23 19:55:53,84,41.2835,-70.0995,77.97,1,18.14
90,Kruisfontein,ZA,2021-09-23 19:58:31,71,-34.0033,24.7314,60.89,17,17.94
91,Zabol,AF,2021-09-23 19:58:32,14,32.25,67.25,65.61,0,3.49
92,Arlit,NE,2021-09-23 19:58:32,17,18.7369,7.3853,95.9,8,4.9
93,Albina,SR,2021-09-23 19:58:33,62,5.5,-54.05,88.02,89,7.45
94,Seminole,US,2021-09-23 19:54:29,74,28.7086,-81.2081,91.27,33,1.01
95,Dudinka,RU,2021-09-23 19:58:33,90,69.4058,86.1778,30.29,14,6.24
96,Palm Coast,US,2021-09-23 19:56:03,62,29.585,-81.2078,85.05,1,8.01
97,Faanui,PF,2021-09-23 19:58:34,69,-16.4833,-151.75,78.08,14,10.71
98,Balabac,PH,2021-09-23 19:58:34,76,7.9868,117.0645,80.53,100,3.69
99,Talnakh,RU,2021-09-23 19:58:35,74,69.4865,88.3972,34.36,3,5.84
100,Gat,IL,2021-09-23 19:55:01,65,31.61,34.7642,76.91,3,7.11
101,Khatanga,RU,2021-09-23 19:58:35,98,71.9667,102.5,33.4,100,6.82
102,Coihaique,CL,2021-09-23 19:58:36,62,-45.5752,-72.0662,59.61,75,5.75
103,Chokurdakh,RU,2021-09-23 19:58:36,89,70.6333,147.9167,28.65,100,3.91
104,Along,IN,2021-09-23 19:58:37,96,28.1667,94.7667,72.5,95,1.57
105,Kyrnasivka,UA,2021-09-23 19:58:37,90,48.5955,28.979,46.09,83,7.65
106,Port Elizabeth,ZA,2021-09-23 19:58:38,69,-33.918,25.5701,63.1,53,15.75
107,San Cristobal,VE,2021-09-23 19:58:38,72,7.7669,-72.225,82.58,100,6.55
108,Markivka,UA,2021-09-23 19:58:38,68,49.5229,39.5705,51.01,100,2.93
109,Mezen,RU,2021-09-23 19:58:39,80,65.8522,44.24,45.28,82,9.13
110,Tomatlan,MX,2021-09-23 19:58:39,59,19.9333,-105.25,89.76,8,7.74
111,Clyde River,CA,2021-09-23 19:58:40,80,70.4692,-68.5914,32.23,75,21.85
112,Pringsewu,ID,2021-09-23 19:58:40,97,-5.3582,104.9744,72.84,100,0.6
113,Aksu,CN,2021-09-23 19:58:40,31,41.1231,80.2644,67.33,0,4.59
114,Obo,CF,2021-09-23 19:58:41,98,5.3998,26.4869,66.7,100,4.25
115,Nikolskoye,RU,2021-09-23 19:58:41,92,59.7035,30.7861,47.01,98,9.22
116,Sao Joao Da Barra,BR,2021-09-23 19:58:42,62,-21.6403,-41.0511,71.69,83,12.66
117,Kavieng,PG,2021-09-23 19:58:42,76,-2.5744,150.7967,81.28,100,10.36
118,Port Alfred,ZA,2021-09-23 19:58:42,72,-33.5906,26.891,63.37,96,19.06
119,Comodoro Rivadavia,AR,2021-09-23 19:58:43,28,-45.8667,-67.5,69.66,75,17.27
120,Mto Wa Mbu,TZ,2021-09-23 19:58:43,69,-3.35,35.85,69.84,83,7.2
121,Vila Velha,BR,2021-09-23 19:58:43,53,-20.3297,-40.2925,73.35,20,13.8
122,Ponta Do Sol,PT,2021-09-23 19:58:44,63,32.6667,-17.1,72.23,95,5.46
123,Bonito,BR,2021-09-23 19:58:44,21,-21.1211,-56.4819,96.19,88,4.97
124,Huarmey,PE,2021-09-23 19:58:45,72,-10.0681,-78.1522,68.38,37,8.97
125,Diamantino,BR,2021-09-23 19:55:30,13,-14.4086,-56.4461,105.66,45,4.45
126,Margate,GB,2021-09-23 19:58:45,84,51.3813,1.3862,63.91,25,1.99
127,Pires Do Rio,BR,2021-09-23 19:58:46,36,-17.2997,-48.2794,85.5,88,8.01
128,Hasaki,JP,2021-09-23 19:58:46,72,35.7333,140.8333,68.4,66,15.17
129,Broken Hill,AU,2021-09-23 19:58:01,38,-31.95,141.4333,58.71,5,11.5
130,Fort Wellington,GY,2021-09-23 19:58:47,67,6.4,-57.6,84.81,83,7.94
131,Leningradskiy,RU,2021-09-23 19:58:47,94,69.3833,178.4167,26.01,100,8.1
132,Severo-Kurilsk,RU,2021-09-23 19:58:47,92,50.6789,156.125,48.56,100,25.59
133,Bredasdorp,ZA,2021-09-23 19:58:48,77,-34.5322,20.0403,58.32,100,11.5
134,Zhigansk,RU,2021-09-23 19:58:48,84,66.7697,123.3711,36.75,88,2.28
135,Kuching,MY,2021-09-23 19:58:11,100,1.55,110.3333,77.22,40,2.3
136,Tuktoyaktuk,CA,2021-09-23 19:58:49,93,69.4541,-133.0374,32.0,90,0.0
137,Aldama,MX,2021-09-23 19:58:49,40,22.9167,-98.0667,88.32,8,7.72
138,Norman Wells,CA,2021-09-23 19:58:49,87,65.282,-126.8329,35.64,75,2.3
139,Syracuse,IT,2021-09-23 19:58:50,75,37.0881,15.2792,72.9,100,7.96
140,Kostomuksha,RU,2021-09-23 19:58:50,82,64.571,30.5767,43.25,100,12.39
141,Hamilton,US,2021-09-23 19:55:53,66,39.1834,-84.5333,67.59,31,4.0
142,Tefe,BR,2021-09-23 19:58:51,88,-3.3542,-64.7114,77.11,75,1.92
143,Kontagora,NG,2021-09-23 19:58:51,90,10.3999,5.4695,74.75,99,3.06
144,Paarl,ZA,2021-09-23 19:58:52,91,-33.7338,18.9752,60.78,97,1.07
145,Parsons,US,2021-09-23 19:58:52,22,37.3403,-95.2611,77.72,0,6.98
146,Rocha,UY,2021-09-23 19:58:52,91,-34.4833,-54.3333,55.72,100,6.67
147,Mercedes,AR,2021-09-23 19:58:53,72,-34.6515,-59.4307,68.18,74,5.66
148,Qandala,SO,2021-09-23 19:58:53,51,11.472,49.8728,90.95,59,6.6
149,Talaya,RU,2021-09-23 19:58:54,87,61.3833,152.75,34.54,7,1.57
150,Adrar,MR,2021-09-23 19:58:54,11,20.5022,-10.0711,97.18,8,7.14
151,Lavrentiya,RU,2021-09-23 19:58:55,69,65.5833,-171.0,32.09,87,2.3
152,Cherskiy,RU,2021-09-23 19:58:55,94,68.75,161.3,28.9,83,6.46
153,Grand Gaube,MU,2021-09-23 19:58:55,77,-20.0064,57.6608,73.8,48,8.99
154,Awbari,LY,2021-09-23 19:58:56,13,26.5921,12.7805,85.03,19,6.6
155,Jumla,NP,2021-09-23 19:58:56,93,29.2747,82.1838,59.63,99,0.49
156,Aksarka,RU,2021-09-23 19:58:57,81,66.5606,67.7975,34.39,2,3.18
157,Mandalgovi,MN,2021-09-23 19:58:57,65,45.7625,106.2708,48.47,7,8.43
158,Progreso,MX,2021-09-23 19:58:58,66,21.2833,-89.6667,91.11,100,9.57
159,Chumphon,TH,2021-09-23 19:58:58,95,10.3333,98.8333,71.22,100,2.39
160,Ahipara,NZ,2021-09-23 19:58:58,83,-35.1667,173.1667,57.06,98,14.88
161,Bandarbeyla,SO,2021-09-23 19:58:59,81,9.4942,50.8122,78.57,87,28.92
162,Ilulissat,GL,2021-09-23 19:58:59,75,69.2167,-51.1,20.03,100,4.45
163,Codrington,AU,2021-09-23 19:58:59,89,-38.2667,141.9667,51.39,97,18.43
164,Gorzow Wielkopolski,PL,2021-09-23 19:59:00,72,52.7368,15.2288,59.22,100,22.12
165,Naze,JP,2021-09-23 19:59:00,70,28.3667,129.4833,75.4,0,9.71
166,Sironko,UG,2021-09-23 19:59:01,71,1.2313,34.2477,67.75,62,5.75
167,Dargaville,NZ,2021-09-23 19:59:01,84,-35.9333,173.8833,56.14,100,15.08
168,Dukat,RU,2021-09-23 19:59:02,84,62.55,155.55,32.79,9,3.58
169,Limpapa,PH,2021-09-23 19:59:02,85,7.1197,121.9106,77.4,49,6.55
170,Sinnamary,GF,2021-09-23 19:59:02,68,5.3833,-52.95,84.29,30,12.46
171,Dhidhdhoo,MV,2021-09-23 19:59:03,77,6.8833,73.1,82.9,13,18.07
172,Arraial Do Cabo,BR,2021-09-23 19:59:03,56,-22.9661,-42.0278,71.56,75,12.66
173,Aklavik,CA,2021-09-23 19:59:04,78,68.2191,-135.0107,34.52,91,6.15
174,Hay River,CA,2021-09-23 19:59:04,87,60.8156,-115.7999,44.58,90,11.5
175,Qaqortoq,GL,2021-09-23 19:59:05,56,60.7167,-46.0333,39.16,0,24.2
176,Provideniya,RU,2021-09-23 19:59:05,64,64.3833,-173.3,32.11,90,6.71
177,Sistranda,NO,2021-09-23 19:59:06,68,63.7256,8.834,47.89,98,22.53
178,Ossora,RU,2021-09-23 19:59:06,80,59.2353,163.0719,43.83,11,5.44
179,Vvedenskoye,RU,2021-09-23 19:59:06,80,55.4753,65.0847,36.79,14,0.87
180,Bengkulu,ID,2021-09-23 19:59:07,90,-3.8004,102.2655,74.77,100,4.34
181,Havre-Saint-Pierre,CA,2021-09-23 19:59:07,82,50.2334,-63.5986,55.76,90,9.22
182,Cururupu,BR,2021-09-23 19:59:08,65,-1.8283,-44.8683,83.05,92,6.26
183,Nishihara,JP,2021-09-23 19:59:08,78,26.1842,127.7558,79.88,20,9.22
184,Saint Anthony,US,2021-09-23 19:59:08,37,45.0205,-93.218,75.15,0,1.01
185,Wanning,CN,2021-09-23 19:59:10,88,18.8003,110.3967,80.96,100,13.56
186,West Bay,KY,2021-09-23 19:59:10,75,19.3667,-81.4167,89.67,40,1.99
187,Geraldton,AU,2021-09-23 19:59:11,93,-28.7667,114.6,52.21,0,5.75
188,Cape Town,ZA,2021-09-23 19:56:36,85,-33.9258,18.4232,61.88,40,11.5
189,Bambous Virieux,MU,2021-09-23 19:59:12,78,-20.3428,57.7575,73.65,75,12.66
190,East London,ZA,2021-09-23 19:59:12,55,-33.0153,27.9116,68.65,98,25.61
191,Kerema,PG,2021-09-23 19:59:12,90,-7.9631,145.7785,75.54,98,4.72
192,Panaba,MX,2021-09-23 19:59:13,60,21.2833,-88.2667,87.44,100,10.16
193,Oyem,GA,2021-09-23 19:59:13,98,1.5995,11.5793,67.8,90,2.35
194,Sisimiut,GL,2021-09-23 19:59:14,78,66.9395,-53.6735,29.7,99,1.86
195,Suez,EG,2021-09-23 19:59:14,67,29.9737,32.5263,76.41,0,8.37
196,Torbay,CA,2021-09-23 19:59:14,75,47.6666,-52.7314,68.77,40,0.0
197,Murree,PK,2021-09-23 19:59:15,83,33.9073,73.393,58.24,0,4.52
198,Klaksvik,FO,2021-09-23 19:59:15,91,62.2266,-6.589,45.1,100,30.74
199,Nautla,MX,2021-09-23 19:59:15,74,20.2167,-96.7833,77.58,98,14.34
200,At-Bashi,KG,2021-09-23 19:59:16,35,41.1702,75.8106,47.16,1,1.81
201,Kano,NG,2021-09-23 19:59:16,83,12.0001,8.5167,76.89,0,3.44
202,Paso De Los Toros,UY,2021-09-23 19:59:17,79,-32.8167,-56.5167,66.54,55,7.58
203,Constitucion,CL,2021-09-23 19:59:17,58,-35.3333,-72.4167,63.09,100,16.28
204,Kysyl-Syr,RU,2021-09-23 19:59:18,87,63.8986,122.7617,39.45,100,3.89
205,Fare,PF,2021-09-23 19:59:18,71,-16.7,-151.0167,77.49,10,11.12
206,Oranjemund,NA,2021-09-23 19:59:18,90,-28.55,16.4333,57.13,99,6.4
207,Bontang,ID,2021-09-23 19:59:19,88,0.1333,117.5,77.23,100,2.59
208,Srednekolymsk,RU,2021-09-23 19:59:19,90,67.45,153.6833,33.39,100,4.83
209,Benjamin Constant,BR,2021-09-23 19:59:20,83,-4.3831,-70.0311,80.73,40,3.44
210,Banda Aceh,ID,2021-09-23 19:59:20,83,5.5577,95.3222,79.23,81,8.95
211,Toora-Khem,RU,2021-09-23 19:59:20,87,52.4675,96.11,34.7,100,4.23
212,Smithers,CA,2021-09-23 19:59:21,76,54.7804,-127.1743,44.92,90,4.61
213,Saint-Pierre,RE,2021-09-23 19:59:21,71,-21.3393,55.4781,69.44,0,2.3
214,Noumea,NC,2021-09-23 19:59:21,64,-22.2763,166.4572,60.78,88,8.61
215,Nayoro,JP,2021-09-23 19:59:22,94,44.3506,142.4578,50.09,91,8.37
216,Bonavista,CA,2021-09-23 19:59:22,89,48.6499,-53.1147,71.6,20,17.65
217,Praya,CV,2021-09-23 19:59:23,69,14.9215,-23.5087,81.14,75,13.8
218,Voyvozh,RU,2021-09-23 19:59:23,92,62.892,54.9635,36.95,29,4.41
219,Half Moon Bay,US,2021-09-23 19:59:24,67,37.4636,-122.4286,96.06,98,6.49
220,Harper,LR,2021-09-23 19:59:24,85,4.375,-7.7169,78.33,26,6.82
221,Luena,AO,2021-09-23 19:59:26,21,-11.7833,19.9167,69.42,25,5.03
222,Oktyabrskiy,RU,2021-09-23 19:59:26,41,54.4815,53.471,55.72,100,12.97
223,Nelson Bay,AU,2021-09-23 19:59:26,85,-32.7167,152.15,58.68,0,10.94
224,Los Llanos De Aridane,ES,2021-09-23 19:59:27,86,28.6585,-17.9182,71.35,20,12.66
225,Saint George,US,2021-09-23 19:59:27,16,37.1041,-113.5841,89.55,38,1.01
226,Glenwood Springs,US,2021-09-23 19:59:27,8,39.5505,-107.3248,81.07,96,3.69
227,Yeppoon,AU,2021-09-23 19:59:28,76,-23.1333,150.7333,53.38,15,4.18
228,Yulara,AU,2021-09-23 19:59:28,49,-25.2406,130.9889,44.44,0,3.44
229,Shieli,KZ,2021-09-23 19:59:29,20,44.1667,66.75,60.84,5,17.92
230,Petropavlovka,RU,2021-09-23 19:59:29,77,50.6114,105.3196,43.65,100,2.15
231,Port Lincoln,AU,2021-09-23 19:59:30,84,-34.7333,135.8667,54.81,24,11.27
232,Saint Joseph,US,2021-09-23 19:57:58,41,39.7686,-94.8466,78.91,0,9.19
233,Srikakulam,IN,2021-09-23 19:59:30,86,18.3,83.9,79.63,87,4.54
234,Zhangye,CN,2021-09-23 19:59:31,32,38.9342,100.4517,70.32,98,11.97
235,Fomboni,KM,2021-09-23 19:59:31,79,-12.28,43.7425,77.16,0,9.01
236,Piotrkow Trybunalski,PL,2021-09-23 19:59:32,60,51.4055,19.7032,61.75,100,23.47
237,Parabel,RU,2021-09-23 19:59:32,95,58.6978,81.4825,33.01,100,8.41
238,Vostok,RU,2021-09-23 19:59:33,94,46.4856,135.8833,38.46,0,1.19
239,Fairbanks,US,2021-09-23 19:59:33,60,64.8378,-147.7164,37.31,100,1.01
240,Lingao,CN,2021-09-23 19:59:34,87,19.9103,109.6859,79.54,100,12.86
241,Victoria,HK,2021-09-23 19:57:26,85,22.2855,114.1577,85.32,74,16.31
242,Pangkalanbuun,ID,2021-09-23 19:59:34,96,-2.6833,111.6167,74.75,98,1.43
243,Olafsvik,IS,2021-09-23 19:59:35,88,64.8945,-23.7142,40.86,100,17.96
244,Sakakah,SA,2021-09-23 19:59:35,27,29.9697,40.2064,81.97,0,11.14
245,Cidreira,BR,2021-09-23 19:59:36,77,-30.1811,-50.2056,64.04,99,19.8
246,Poum,NC,2021-09-23 19:59:36,67,-20.2333,164.0167,67.96,28,9.31
247,San Patricio,US,2021-09-23 19:59:37,23,28.017,-97.5169,87.06,11,6.33
248,Ola,RU,2021-09-23 19:59:37,83,59.5833,151.2833,42.94,1,2.51
249,Kenai,US,2021-09-23 19:59:37,79,60.5544,-151.2583,42.15,100,21.54
250,Estevan,CA,2021-09-23 19:59:38,28,49.1334,-102.9842,71.94,20,20.71
251,Manggar,ID,2021-09-23 19:59:38,80,-2.8833,108.2667,80.44,100,10.0
252,Tiksi,RU,2021-09-23 19:59:38,75,71.6872,128.8694,39.0,100,21.85
253,Fujin,CN,2021-09-23 19:59:39,74,47.26,132.0322,43.47,3,3.76
254,Salalah,OM,2021-09-23 19:59:39,85,17.0151,54.0924,80.91,48,3.98
255,Longyearbyen,SJ,2021-09-23 19:59:40,92,78.2186,15.6401,37.81,100,8.32
256,Katobu,ID,2021-09-23 19:59:40,94,-4.9408,122.5276,73.11,100,4.18
257,Inhambane,MZ,2021-09-23 19:59:40,70,-23.865,35.3833,66.18,0,6.87
258,Caconda,AO,2021-09-23 19:59:41,18,-13.7333,15.0667,71.98,17,3.2
259,Iquique,CL,2021-09-23 19:59:41,73,-20.2208,-70.1431,60.84,34,7.43
260,Maldonado,UY,2021-09-23 19:59:42,83,-34.6667,-54.9167,63.79,68,7.74
261,Mashhad,IR,2021-09-23 19:56:19,30,36.297,59.6062,71.74,0,4.61
262,Baykit,RU,2021-09-23 19:59:42,98,61.67,96.37,33.06,100,4.83
263,Biltine,TD,2021-09-23 19:59:43,31,14.5333,20.9167,90.23,5,5.19
264,Sovetskiy,RU,2021-09-23 19:59:43,83,61.3614,63.5842,41.72,100,1.61
265,Morehead,US,2021-09-23 19:59:44,41,37.2711,-87.1764,70.86,1,1.99
266,Jijiga,ET,2021-09-23 19:59:44,80,9.35,42.8,64.6,6,8.93
267,Ekibastuz,KZ,2021-09-23 19:59:44,72,51.6667,75.3667,37.58,23,6.02
268,Chapais,CA,2021-09-23 19:59:45,97,49.7834,-74.8492,47.98,100,10.71
269,Auki,SB,2021-09-23 19:59:45,85,-8.7676,160.7034,77.32,99,3.8
270,Muzhi,RU,2021-09-23 19:59:46,86,65.3667,64.6667,34.11,30,3.02
271,Mossendjo,CG,2021-09-23 19:59:46,91,-2.9506,12.7261,70.81,100,0.38
272,Rostusa,MK,2021-09-23 19:59:46,56,41.61,20.6,45.12,0,2.35
273,Dobre Miasto,PL,2021-09-23 19:59:47,90,53.9867,20.3975,56.08,100,22.57
274,Labuhan,ID,2021-09-23 19:59:47,79,-6.8844,112.2051,79.41,100,6.69
275,Kahului,US,2021-09-23 19:59:48,84,20.8947,-156.47,82.98,37,10.16
276,Horsham,GB,2021-09-23 19:59:48,90,51.064,-0.3272,63.59,90,4.94
277,Barra,BR,2021-09-23 19:59:48,34,-11.0894,-43.1417,90.19,70,6.87
278,Matay,EG,2021-09-23 19:59:49,39,28.419,30.7792,83.35,0,11.72
279,Tungor,RU,2021-09-23 19:59:49,94,53.3808,142.9564,44.85,9,9.73
280,Itaituba,BR,2021-09-23 19:59:49,55,-4.2761,-55.9836,95.16,20,3.49
281,Dhanera,IN,2021-09-23 19:59:50,88,24.5167,72.0167,79.11,100,4.9
282,Bathsheba,BB,2021-09-23 19:59:50,58,13.2167,-59.5167,90.21,20,10.36
283,Quang Ngai,VN,2021-09-23 19:59:51,94,15.1167,108.8,74.75,100,8.08
284,Saint-Joseph,RE,2021-09-23 19:59:51,75,-21.3667,55.6167,68.36,18,12.62
285,Owando,CG,2021-09-23 19:59:51,84,-0.4819,15.8999,74.16,100,1.66
286,Itacarambi,BR,2021-09-23 19:59:52,27,-15.1022,-44.0919,92.21,10,5.41
287,Jakarta,ID,2021-09-23 19:56:57,74,-6.2146,106.8451,80.53,93,8.3
288,Yatou,CN,2021-09-23 19:59:52,77,37.15,122.3833,66.74,99,2.44
289,Sorland,NO,2021-09-23 19:59:53,64,67.667,12.6934,49.08,95,17.09
290,Nchelenge,ZM,2021-09-23 19:59:53,39,-9.3451,28.734,76.59,77,7.27
291,Seoul,KR,2021-09-23 19:58:37,91,37.5683,126.9778,63.84,0,2.3
292,Yumen,CN,2021-09-23 19:59:54,30,40.2833,97.2,62.02,91,0.63
293,Kosh-Agach,RU,2021-09-23 19:59:54,55,50.0,88.6667,26.02,15,0.94
294,Lagoa,PT,2021-09-23 19:59:55,63,39.05,-27.9833,69.03,100,9.98
295,Gamba,GA,2021-09-23 19:59:55,82,-2.65,10.0,76.78,91,6.06
296,Sao Gabriel Da Cachoeira,BR,2021-09-23 19:59:56,66,-0.1303,-67.0892,87.6,40,4.61
297,Parbatipur,BD,2021-09-23 19:59:56,79,25.6649,88.9247,77.77,56,2.15
298,Marsa Matruh,EG,2021-09-23 19:59:57,83,31.3525,27.2453,75.4,40,14.97
299,Bulungu,CD,2021-09-23 19:59:57,75,-4.55,18.6,75.15,100,3.91
300,Chopinzinho,BR,2021-09-23 19:59:57,59,-25.8558,-52.5233,73.22,88,3.04
301,Eyl,SO,2021-09-23 19:59:58,83,7.9803,49.8164,77.72,28,20.2
302,Thompson,CA,2021-09-23 19:59:58,82,55.7435,-97.8558,57.36,75,5.75
303,Lubbock,US,2021-09-23 19:59:59,22,33.6001,-101.8338,84.38,51,4.0
304,Wajima,JP,2021-09-23 19:59:59,78,37.4,136.9,70.7,91,9.06
305,Turukhansk,RU,2021-09-23 19:59:59,92,65.8167,87.9833,27.72,46,7.58
306,Maroantsetra,MG,2021-09-23 20:00:00,86,-15.4333,49.7333,67.91,34,3.71
307,Shenjiamen,CN,2021-09-23 20:00:00,79,29.9576,122.298,75.97,9,7.54
308,San Quintin,MX,2021-09-23 20:00:01,64,30.4833,-115.95,77.49,73,12.35
309,Goderich,CA,2021-09-23 19:55:27,77,43.7501,-81.7165,60.91,100,12.66
310,Kutum,SD,2021-09-23 20:00:15,23,14.2,24.6667,82.92,14,7.31
311,Awjilah,LY,2021-09-23 20:00:17,24,29.1081,21.2869,85.26,1,11.61
312,Guerrero Negro,MX,2021-09-23 20:00:17,48,27.9769,-114.0611,86.76,0,4.09
313,Eregli,TR,2021-09-23 20:00:18,76,37.5133,34.0467,51.51,100,2.84
314,Yining,CN,2021-09-23 20:00:19,86,29.0361,114.5636,74.43,50,1.9
315,Polyarnyy,RU,2021-09-23 20:00:19,86,69.1989,33.4478,40.42,20,12.12
316,Vaitape,PF,2021-09-23 20:00:20,69,-16.5167,-151.75,78.08,14,10.78
317,Laibin,CN,2021-09-23 20:00:20,85,23.7,109.2667,78.66,87,1.45
318,San Nicolas,PH,2021-09-23 20:00:21,78,18.1725,120.5953,78.69,11,5.57
319,Gomel,BY,2021-09-23 20:00:21,96,52.4345,30.9754,42.66,100,7.47
320,Falun,SE,2021-09-23 20:00:22,92,60.6036,15.626,45.95,100,16.04
321,Keti Bandar,PK,2021-09-23 20:00:22,83,24.1447,67.4497,81.5,100,13.65
322,Erenhot,CN,2021-09-23 20:00:22,65,43.6475,111.9767,61.72,77,6.73
323,Marawi,PH,2021-09-23 20:00:23,95,7.9986,124.2928,66.65,65,1.61
324,Staryy Nadym,RU,2021-09-23 20:00:23,85,65.6118,72.6842,39.22,100,13.49
325,Baymak,RU,2021-09-23 20:00:24,64,52.5933,58.3225,40.62,100,5.7
326,Guiratinga,BR,2021-09-23 20:00:24,12,-16.3494,-53.7583,103.42,26,2.33
327,Vila,PT,2021-09-23 20:00:25,84,42.0304,-8.1588,59.32,87,2.44
328,Kavaratti,IN,2021-09-23 20:00:25,79,10.5669,72.642,81.45,95,14.25
329,Najran,SA,2021-09-23 20:00:26,19,17.4924,44.1277,76.78,13,1.16
330,Hami,CN,2021-09-23 20:00:26,20,42.8,93.45,66.51,41,5.26
331,Verkhoyansk,RU,2021-09-23 19:57:26,81,67.5447,133.385,36.43,85,5.68
332,Norwich,GB,2021-09-23 20:00:27,82,52.6278,1.2983,62.15,87,2.64
333,Nanortalik,GL,2021-09-23 20:00:28,76,60.1432,-45.2371,36.88,7,21.63
334,Aasiaat,GL,2021-09-23 20:00:29,85,68.7098,-52.8699,22.87,100,6.13
335,Kuah,MY,2021-09-23 20:00:29,75,6.3265,99.8432,82.89,86,7.16
336,Esperance,AU,2021-09-23 20:00:30,65,-33.8667,121.9,54.03,100,13.09
337,Khorixas,NA,2021-09-23 20:00:31,18,-20.3667,14.9667,75.33,4,7.58
338,Hambantota,LK,2021-09-23 20:00:31,84,6.1241,81.1185,79.97,100,15.79
339,Yafran,LY,2021-09-23 20:00:32,54,32.0633,12.5286,75.58,42,5.5
340,Sur,OM,2021-09-23 20:00:33,66,22.5667,59.5289,86.16,100,3.2
341,Pemberton,CA,2021-09-23 20:00:34,47,50.3164,-122.8027,68.27,63,2.57
342,Gulbarga,IN,2021-09-23 20:00:34,91,17.3333,76.8333,74.37,100,6.67
343,Gambiran,ID,2021-09-23 20:00:35,85,-6.7988,111.4951,76.51,96,4.47
344,Kalmunai,LK,2021-09-23 20:00:36,81,7.4167,81.8167,81.18,83,5.99
345,Guangyuan,CN,2021-09-23 20:00:36,96,32.442,105.823,69.67,91,2.73
346,Helong,CN,2021-09-23 20:00:37,96,42.5397,128.9972,48.47,83,1.36
347,Port Shepstone,ZA,2021-09-23 20:00:38,82,-30.7414,30.455,66.38,53,18.3
348,Aktau,KZ,2021-09-23 20:00:39,25,43.65,51.2,75.65,5,29.3
349,Semirom,IR,2021-09-23 20:00:40,23,31.4167,51.5667,56.71,0,3.24
350,Port Blair,IN,2021-09-23 20:00:41,81,11.6667,92.75,80.2,100,10.6
351,Dedougou,BF,2021-09-23 20:00:41,65,12.4667,-3.4667,79.14,59,2.77
352,Kaeo,NZ,2021-09-23 20:00:42,86,-35.1,173.7833,57.33,100,11.41
353,College,US,2021-09-23 20:00:42,59,64.8569,-147.8028,37.8,100,5.77
354,Kisangani,CD,2021-09-23 20:00:43,97,0.5167,25.2,68.88,59,2.66
355,Virginia Beach,US,2021-09-23 19:59:55,94,36.8529,-75.978,68.05,100,1.01
356,Ugoofaaru,MV,2021-09-23 20:00:44,77,5.6667,73.0,82.6,100,16.84
357,Road Town,VG,2021-09-23 20:00:44,71,18.4167,-64.6167,86.2,72,9.19
358,Camana,PE,2021-09-23 20:00:45,78,-16.6228,-72.7111,63.52,78,8.12
359,Cumberland,US,2021-09-23 20:00:46,46,35.0502,-78.8664,80.08,1,8.05
360,Beloha,MG,2021-09-23 20:00:47,78,-25.1667,45.05,68.54,94,14.09
361,Baherden,TM,2021-09-23 20:00:47,17,38.4362,57.4316,76.91,11,6.73
362,Lunglei,IN,2021-09-23 20:00:48,99,22.8833,92.7333,66.47,92,2.44
363,Bonnyville,CA,2021-09-23 20:00:49,28,54.2668,-110.735,54.57,46,20.96
364,Pangnirtung,CA,2021-09-23 20:00:50,51,66.1451,-65.7125,34.45,65,7.23
365,Belmonte,BR,2021-09-23 20:00:50,68,-15.8631,-38.8828,73.38,100,13.29
366,Dennery,LC,2021-09-23 20:00:50,67,13.8996,-60.8879,85.06,24,8.34
367,Upington,ZA,2021-09-23 20:00:51,14,-28.4478,21.2561,67.12,0,6.62
368,Sitka,US,2021-09-23 20:00:52,90,57.0531,-135.33,50.95,100,7.16
369,Ambovombe,MG,2021-09-23 20:00:52,86,-25.1667,46.0833,68.65,21,15.99
370,Cravo Norte,CO,2021-09-23 20:00:53,78,6.3017,-70.2041,80.98,100,8.37
371,Airai,TL,2021-09-23 20:00:54,54,-8.9266,125.4092,57.31,100,1.97
372,Haines Junction,CA,2021-09-23 20:00:54,93,60.7522,-137.5108,38.82,99,3.44
373,Raudeberg,NO,2021-09-23 20:00:55,90,61.9875,5.1352,46.87,97,1.01
374,Baswa,IN,2021-09-23 20:00:56,79,27.15,76.5833,80.17,87,6.04
375,Westport,US,2021-09-23 20:00:56,83,41.1415,-73.3579,80.74,89,1.01
376,Shingu,JP,2021-09-23 20:00:57,78,33.7333,135.9833,67.91,100,4.47
377,Miles City,US,2021-09-23 20:00:58,23,46.4083,-105.8406,77.5,22,13.94
378,Kurumkan,RU,2021-09-23 20:00:58,74,54.3,110.3,38.46,76,2.42
379,Mogadouro,PT,2021-09-23 19:58:45,78,41.3403,-6.7119,58.78,100,2.44
380,Changping,CN,2021-09-23 20:00:59,96,40.2186,116.2197,63.9,100,4.07
381,Lompoc,US,2021-09-23 20:00:45,75,34.6391,-120.4579,86.02,40,1.01
382,Kabanjahe,ID,2021-09-23 20:01:00,96,3.1001,98.4908,62.92,90,2.84
383,Acarau,BR,2021-09-23 20:01:00,71,-2.8856,-40.12,81.9,58,19.71
384,Haimen,CN,2021-09-23 20:01:01,84,23.1935,116.6142,80.31,100,10.27
385,Kearney,US,2021-09-23 19:57:58,19,40.6995,-99.0815,81.99,4,13.38
386,Vao,NC,2021-09-23 20:01:02,61,-22.6667,167.4833,66.85,51,17.02
387,Oktyabrskoye,RU,2021-09-23 20:01:03,98,43.0645,44.7417,53.31,100,2.39
388,Kathmandu,NP,2021-09-23 19:59:13,91,27.7167,85.3167,66.42,98,1.36
389,Havelock,US,2021-09-23 20:01:03,95,34.8791,-76.9013,75.18,100,1.99
390,Krasnyy Yar,RU,2021-09-23 20:01:04,78,46.5331,48.3456,60.35,100,9.28
391,Husavik,IS,2021-09-23 20:01:04,93,66.0449,-17.3389,39.11,100,16.58
392,Deputatskiy,RU,2021-09-23 20:01:04,89,69.3,139.9,30.96,100,5.64
393,Christchurch,NZ,2021-09-23 20:01:05,72,-43.5333,172.6333,51.26,0,5.19
394,Yaan,NG,2021-09-23 20:01:05,89,7.3833,8.5667,75.69,90,3.89
395,Twentynine Palms,US,2021-09-23 20:01:06,24,34.1356,-116.0542,96.66,1,1.99
396,Nuuk,GL,2021-09-23 19:58:43,51,64.1835,-51.7216,33.71,0,12.39
397,Asau,RO,2021-09-23 20:01:07,76,46.4333,26.4,46.96,100,6.24
398,Ballina,AU,2021-09-23 20:01:07,86,-28.8667,153.5667,55.8,2,6.53
399,Tabuk,PH,2021-09-23 20:01:07,94,17.4189,121.4443,73.35,12,2.46
400,Champerico,GT,2021-09-23 20:01:08,69,14.3,-91.9167,91.76,38,5.91
401,Port-De-Bouc,FR,2021-09-23 20:01:08,68,43.4,4.9833,68.76,9,2.59
402,San Rafael,AR,2021-09-23 20:01:09,24,-34.6177,-68.3301,74.28,0,13.04
403,Batemans Bay,AU,2021-09-23 20:00:11,80,-35.7167,150.1833,57.2,21,4.14
404,Marabba,SD,2021-09-23 20:01:09,57,12.35,32.1833,84.38,84,8.12
405,Luderitz,NA,2021-09-23 20:01:10,77,-26.6481,15.1594,58.06,45,13.22
406,Padang,ID,2021-09-23 20:01:10,87,-0.9492,100.3543,77.95,84,3.47
407,Inirida,CO,2021-09-23 20:01:10,88,3.8653,-67.9239,79.32,100,2.68
408,Puerto Leguizamo,CO,2021-09-23 20:01:11,85,-0.1934,-74.7819,77.02,100,3.49
409,Beringovskiy,RU,2021-09-23 20:01:11,99,63.05,179.3167,35.56,100,11.32
410,Damghan,IR,2021-09-23 20:01:12,14,36.1683,54.348,77.52,0,8.12
411,Lucapa,AO,2021-09-23 20:01:12,78,-8.4192,20.7447,67.39,100,6.35
412,Lorengau,PG,2021-09-23 20:01:13,83,-2.0226,147.2712,79.09,100,9.04
413,Piskivka,UA,2021-09-23 20:01:13,92,50.6938,29.6193,43.74,100,7.87
414,Petropavlovsk-Kamchatskiy,RU,2021-09-23 20:01:14,75,53.0452,158.6483,46.67,100,5.95
415,Stornoway,GB,2021-09-23 20:01:14,88,58.2093,-6.3865,55.92,100,23.62
416,Concordia,AR,2021-09-23 20:01:14,64,-31.393,-58.0209,66.83,96,7.7
417,Vestmanna,FO,2021-09-23 20:01:15,92,62.1564,-7.1664,43.38,100,25.95
418,Pontes E Lacerda,BR,2021-09-23 20:01:15,16,-15.2261,-59.3353,102.79,73,2.59
419,Desaguadero,PE,2021-09-23 20:01:15,39,-16.5656,-69.0417,56.55,12,19.48
420,Hadgaon,IN,2021-09-23 20:01:16,90,19.5,77.6667,73.33,100,4.52
421,Tuatapere,NZ,2021-09-23 20:01:16,79,-46.1333,167.6833,46.81,81,7.78
422,Zhanaozen,KZ,2021-09-23 20:01:17,18,43.3,52.8,71.73,3,28.03
423,Ponot,PH,2021-09-23 20:01:17,87,8.452,123.0222,78.78,48,1.03
424,Swellendam,ZA,2021-09-23 20:01:18,80,-34.0226,20.4417,56.89,100,3.24
425,Mount Isa,AU,2021-09-23 20:01:18,16,-20.7333,139.5,62.38,11,10.29
426,Acapulco,MX,2021-09-23 20:00:21,70,16.8634,-99.8901,86.27,38,7.67
427,Roald,NO,2021-09-23 20:01:18,69,62.5833,6.1333,48.9,100,16.89
428,Gobabis,NA,2021-09-23 20:01:19,20,-22.45,18.9667,71.08,0,8.95
429,Tucumcari,US,2021-09-23 20:01:19,15,35.1717,-103.725,87.94,1,12.66
430,San Angelo,US,2021-09-23 20:00:01,24,31.4638,-100.437,86.43,11,3.0
431,Yuanping,CN,2021-09-23 20:01:20,92,38.7153,112.7575,59.76,100,1.52
432,Pilikwe,BW,2021-09-23 20:01:20,43,-22.799,27.1938,64.81,0,8.32
433,Blind River,CA,2021-09-23 20:01:21,92,46.1834,-82.9582,51.91,100,11.23
434,Korla,CN,2021-09-23 20:01:21,28,41.7597,86.1469,67.17,0,8.08
435,Edmundston,CA,2021-09-23 20:01:21,53,47.3737,-68.3251,78.17,75,6.91
436,Puerto Baquerizo Moreno,EC,2021-09-23 20:01:22,84,-0.9,-89.6,69.51,85,11.12
437,Arroyo,ES,2021-09-23 20:01:22,54,41.6096,-4.7969,70.14,70,15.19
438,Hollister,US,2021-09-23 20:01:23,41,36.8525,-121.4016,93.81,1,0.0
439,Marsabit,KE,2021-09-23 20:01:23,55,2.3284,37.9899,69.08,19,22.03
440,Yuci,CN,2021-09-23 20:01:23,90,37.6803,112.7319,61.79,99,4.56
441,Valparaiso,CL,2021-09-23 20:00:21,58,-33.0393,-71.6273,66.31,6,16.73
442,Havoysund,NO,2021-09-23 20:01:24,81,70.9963,24.6622,46.42,91,25.95
443,Bosaso,SO,2021-09-23 20:01:24,43,11.2842,49.1816,92.41,41,8.14
444,Ambilobe,MG,2021-09-23 20:01:25,73,-13.2,49.05,69.55,0,4.9
445,Karangasem,ID,2021-09-23 20:01:25,88,-8.45,115.6167,75.87,95,1.5
446,Fort Nelson,CA,2021-09-23 20:01:26,35,58.8053,-122.7002,52.84,99,1.36
447,Hearst,CA,2021-09-23 20:01:26,51,49.6835,-83.6665,53.37,100,9.08
448,Kitimat,CA,2021-09-23 20:00:11,41,54.0524,-128.6534,48.9,100,2.82
449,Churapcha,RU,2021-09-23 20:01:27,75,62.0025,132.4325,37.9,83,3.87
450,Henties Bay,NA,2021-09-23 20:01:28,81,-22.116,14.2845,56.86,0,6.85
451,Katangli,RU,2021-09-23 20:01:28,93,51.7102,143.2326,46.0,95,13.94
452,Polunochnoye,RU,2021-09-23 20:01:28,93,60.8697,60.4153,36.9,99,2.57
453,Sao Felix Do Xingu,BR,2021-09-23 20:00:51,30,-6.6447,-51.995,93.67,78,1.66
454,Sulangan,PH,2021-09-23 20:01:29,81,11.1373,123.7228,82.54,100,12.77
455,Never,FR,2021-09-23 20:01:29,82,46.9896,3.159,59.65,1,2.42
456,Chicama,PE,2021-09-23 20:01:30,60,-7.8447,-79.1469,74.19,18,10.11
457,Broome,US,2021-09-23 20:01:30,81,42.2506,-75.833,68.36,90,1.99
458,Taltal,CL,2021-09-23 20:01:06,66,-25.4,-70.4833,64.67,23,7.09
459,Shalakusha,RU,2021-09-23 20:01:31,93,62.2247,40.2539,44.19,100,6.13
460,Seljord,NO,2021-09-23 20:01:31,86,59.4894,8.634,42.91,27,7.05
461,Mecca,SA,2021-09-23 20:01:32,37,21.4267,39.8261,89.98,90,3.49
462,Port-Gentil,GA,2021-09-23 20:01:32,84,-0.7193,8.7815,78.15,68,8.86
463,Xihe,CN,2021-09-23 20:01:32,92,31.6864,113.4659,73.17,100,2.44
464,Camalu,MX,2021-09-23 20:01:33,57,30.85,-116.0667,89.42,66,9.98
465,Pangoa,PE,2021-09-23 20:01:33,32,-12.1167,-73.0,91.58,28,4.07
466,Paita,PE,2021-09-23 20:01:34,74,-5.0892,-81.1144,69.85,20,17.16
467,Troitsko-Pechorsk,RU,2021-09-23 20:01:34,93,62.7084,56.1964,36.86,93,3.38
468,Nyurba,RU,2021-09-23 20:01:34,77,63.2842,118.3319,39.27,100,4.23
469,Ca Mau,VN,2021-09-23 20:01:35,93,9.1769,105.15,76.71,100,4.23
470,Bichura,RU,2021-09-23 20:01:35,78,50.5881,107.6022,39.15,100,4.0
471,Belfast,GB,2021-09-23 19:58:53,87,54.5833,-5.9333,59.38,26,8.1
472,Tamasi,HU,2021-09-23 20:01:36,74,46.6333,18.2833,58.68,75,8.77
473,Moses Lake,US,2021-09-23 20:01:36,32,47.1301,-119.2781,72.28,24,3.53
474,Soyo,AO,2021-09-23 20:01:37,84,-6.1349,12.3689,75.4,23,8.66
475,Huejuquilla El Alto,MX,2021-09-23 20:01:37,42,22.6,-103.8667,76.64,30,3.6
476,Kologriv,RU,2021-09-23 20:01:37,92,58.8275,44.3178,48.11,100,9.75
477,Rumphi,MW,2021-09-23 20:01:38,79,-11.0186,33.8575,63.93,9,4.81
478,Namatanai,PG,2021-09-23 20:01:38,78,-3.6667,152.4333,78.44,100,6.62
479,Faya,SA,2021-09-23 20:01:39,36,18.3851,42.4509,69.82,61,2.84
480,Menongue,AO,2021-09-23 20:01:39,22,-14.6585,17.691,70.61,35,5.03
481,Verkhniye Tatyshly,RU,2021-09-23 20:01:40,75,56.2912,55.8575,43.2,88,7.14
482,Tura,IN,2021-09-23 20:01:40,93,25.5198,90.2201,73.36,18,2.39
483,Pictou,CA,2021-09-23 20:00:07,63,45.6834,-62.7153,76.77,39,1.54
484,Gigmoto,PH,2021-09-23 20:01:41,86,13.7796,124.39,80.2,68,5.97
485,Nhamunda,BR,2021-09-23 20:01:41,36,-2.1861,-56.7131,95.63,99,5.37
486,Pisco,PE,2021-09-23 19:59:31,72,-13.7,-76.2167,67.01,20,9.22
487,Hobyo,SO,2021-09-23 20:01:42,84,5.3505,48.5268,77.74,75,22.75
488,Charters Towers,AU,2021-09-23 20:01:42,84,-20.1,146.2667,55.56,2,7.07
489,Touros,BR,2021-09-23 20:01:43,71,-5.1989,-35.4608,80.29,64,15.48
490,Sobolevo,RU,2021-09-23 20:01:43,95,54.4299,31.8996,40.1,99,9.01
491,Oistins,BB,2021-09-23 20:01:44,72,13.0667,-59.5333,83.73,8,11.63
492,Puerto Quijarro,BO,2021-09-23 20:01:44,28,-17.7833,-57.7667,94.69,100,7.09
493,Naantali,FI,2021-09-23 20:01:44,95,60.4674,22.0243,49.1,100,26.24
494,Luganville,VU,2021-09-23 20:01:45,84,-15.5333,167.1667,77.9,78,9.82
495,Kisanga,TZ,2021-09-23 20:01:45,64,-7.4362,37.7034,76.41,5,7.96
496,Skjervoy,NO,2021-09-23 20:01:46,84,70.0311,20.9714,45.45,92,17.13
497,Elko,US,2021-09-23 20:00:13,24,41.0002,-115.5012,73.74,54,5.01
498,Ravar,IR,2021-09-23 20:01:46,16,31.2656,56.8055,80.15,19,3.71
499,Beaverlodge,CA,2021-09-23 20:01:47,27,55.2166,-119.4361,56.41,100,11.59
500,Marshfield,US,2021-09-23 19:58:04,46,44.6689,-90.1718,69.19,0,10.67
501,Ivangorod,RU,2021-09-23 20:01:47,81,59.3716,28.2162,43.61,100,15.14
502,Beitbridge,ZW,2021-09-23 20:01:48,35,-22.2167,30.0,67.6,0,8.14
503,Amarante Do Maranhao,BR,2021-09-23 20:01:48,30,-5.5667,-46.7422,94.41,100,1.79
504,Del Rio,US,2021-09-23 20:01:49,18,29.3627,-100.8968,88.43,88,11.86
505,Pitimbu,BR,2021-09-23 20:01:49,73,-7.4706,-34.8086,80.17,59,12.01
506,Sawtell,AU,2021-09-23 20:01:49,93,-30.3833,153.1,51.19,0,4.81
507,Alexandria,EG,2021-09-23 20:01:50,73,31.2156,29.9553,77.36,22,16.58
508,Taozhuang,CN,2021-09-23 20:01:50,91,34.85,117.3333,70.47,98,11.21
509,Tigil,RU,2021-09-23 20:01:51,90,57.8,158.6667,39.47,4,2.55
510,Akureyri,IS,2021-09-23 20:01:51,98,65.6835,-18.0878,36.77,100,4.7
511,Trairi,BR,2021-09-23 19:57:18,71,-3.2778,-39.2689,81.59,54,13.49
512,Novoanninskiy,RU,2021-09-23 20:01:52,65,50.5287,42.6747,47.73,100,0.67
513,Toamasina,MG,2021-09-23 20:01:52,82,-18.1667,49.3833,69.64,59,7.14
514,Carndonagh,IE,2021-09-23 20:01:52,93,55.25,-7.2667,51.28,2,7.47
515,Tabou,CI,2021-09-23 20:01:53,86,4.423,-7.3528,78.01,19,6.44
516,Aborlan,PH,2021-09-23 20:01:53,84,9.4352,118.5492,77.83,95,4.36
517,Wanlaweyn,SO,2021-09-23 20:01:54,78,2.6185,44.8938,77.25,10,18.43
518,Camopi,GF,2021-09-23 20:01:54,43,3.1655,-52.3158,90.54,100,5.28
519,Rundu,NA,2021-09-23 20:01:54,17,-17.9333,19.7667,74.05,9,7.16
520,Praia Da Vitoria,PT,2021-09-23 20:01:55,74,38.7333,-27.0667,70.75,58,9.31
521,Loni,IN,2021-09-23 20:01:55,75,28.75,77.2833,81.48,95,6.6
522,Rajapolah,ID,2021-09-23 20:01:56,95,-7.221,108.1896,69.6,100,1.48
523,Kasongo-Lunda,CD,2021-09-23 20:01:56,67,-6.4667,16.8167,77.27,100,5.21
524,Jurm,AF,2021-09-23 20:01:56,26,36.8648,70.8342,60.89,0,3.56
525,Kidal,ML,2021-09-23 20:01:57,23,18.4411,1.4078,95.2,80,12.28
526,Koutiala,ML,2021-09-23 20:01:57,60,12.3917,-5.4642,81.9,95,3.69
527,Honiara,SB,2021-09-23 20:01:58,85,-9.4333,159.95,77.45,86,4.7
528,Kargat,RU,2021-09-23 20:01:58,92,55.1956,80.2811,31.08,40,4.14
529,Mbandaka,CD,2021-09-23 20:01:58,90,0.0487,18.2603,70.9,100,3.58
530,Barra Do Garcas,BR,2021-09-23 20:01:13,11,-15.89,-52.2567,105.69,6,3.96
531,Sept-Iles,CA,2021-09-23 20:00:10,89,50.2001,-66.3821,54.25,100,3.0
532,Gizo,SB,2021-09-23 20:01:59,76,-8.103,156.8419,80.08,79,2.1
533,Atar,MR,2021-09-23 20:02:00,13,20.5169,-13.0499,98.44,81,9.55
534,Aiquile,BO,2021-09-23 20:02:00,75,-18.2041,-65.1807,60.1,99,5.95
535,Dolores,AR,2021-09-23 20:02:01,83,-36.3132,-57.6792,55.96,97,2.51
536,Luau,AO,2021-09-23 20:02:01,23,-10.7073,22.2247,74.08,44,3.98
537,Malnas,RO,2021-09-23 20:02:01,84,46.0167,25.8333,45.61,56,4.56
538,Bertoua,CM,2021-09-23 20:02:02,97,4.5833,13.6833,68.45,100,2.08
539,Chumikan,RU,2021-09-23 20:02:02,74,54.7183,135.315,42.89,0,11.07
540,Bushehr,IR,2021-09-23 20:02:03,42,28.9684,50.8385,88.39,0,4.68
541,Pacific Grove,US,2021-09-23 20:02:03,80,36.6177,-121.9166,91.15,54,7.0
542,Victor Harbor,AU,2021-09-23 20:02:04,89,-35.5667,138.6167,53.01,5,10.09
543,Pierre,US,2021-09-23 19:59:34,16,44.3683,-100.351,85.51,11,2.73
544,Tokur,RU,2021-09-23 20:02:04,88,53.1333,132.9,32.94,0,2.55
545,Angoche,MZ,2021-09-23 20:02:05,76,-16.2325,39.9086,74.1,3,11.12
546,Vitry-Le-Francois,FR,2021-09-23 20:02:05,72,48.7333,4.5833,56.32,6,2.33
547,Hammond,US,2021-09-23 20:01:57,42,41.5834,-87.5,71.22,40,4.0
548,Moyo,UG,2021-09-23 20:02:06,77,3.6609,31.7247,69.57,48,2.82
549,Praxedis Guerrero,MX,2021-09-23 20:02:07,20,31.3667,-106.0167,87.42,100,7.99
550,Bunia,CD,2021-09-23 20:02:07,80,1.5667,30.25,67.33,59,1.77
551,Mehamn,NO,2021-09-23 20:02:08,71,71.0357,27.8492,44.22,100,22.7
552,Muros,ES,2021-09-23 20:02:08,68,42.7762,-9.0603,70.23,7,15.46
553,Wladyslawowo,PL,2021-09-23 19:59:49,73,54.7909,18.4009,56.75,90,36.78
554,Rio Gallegos,AR,2021-09-23 20:02:09,37,-51.6226,-69.2181,53.55,66,21.52
555,Tadine,NC,2021-09-23 20:02:09,61,-21.55,167.8833,67.8,52,15.82
556,Miquelon,PM,2021-09-23 20:02:10,92,47.0975,-56.3814,66.2,21,16.82
557,Gravdal,NO,2021-09-23 20:02:10,67,68.1214,13.5031,47.95,100,13.73
558,Pueblo,US,2021-09-23 19:58:34,11,38.2545,-104.6091,87.6,0,1.01
559,Meulaboh,ID,2021-09-23 20:02:11,90,4.1363,96.1285,76.95,79,4.43
560,Suntar,RU,2021-09-23 20:02:11,84,62.1444,117.6319,40.24,100,2.33
561,Ankazoabo,MG,2021-09-23 20:02:12,52,-22.2833,44.5167,74.43,69,11.81
562,Deniliquin,AU,2021-09-23 20:02:12,76,-35.5333,144.9667,41.0,0,6.62
563,Qui Nhon,VN,2021-09-23 20:00:09,85,13.7667,109.2333,77.27,100,4.16
564,Konstantinovsk,RU,2021-09-23 20:02:13,59,47.5828,41.0922,56.14,100,4.81
565,Yar-Sale,RU,2021-09-23 20:02:13,86,66.8333,70.8333,39.81,100,12.28
566,Kytmanovo,RU,2021-09-23 20:02:13,91,53.4593,85.4479,38.86,98,2.86
567,Sabang,ID,2021-09-23 20:02:14,78,5.8933,95.3214,82.36,64,12.86
568,Khandyga,RU,2021-09-23 20:02:14,82,62.6667,135.6,35.83,6,2.17
569,Bandipur,NP,2021-09-23 20:02:15,95,27.9333,84.4167,65.84,82,0.74
570,Sheregesh,RU,2021-09-23 20:02:15,96,52.9209,87.9869,33.44,100,0.36
571,Kiruna,SE,2021-09-23 20:02:15,98,67.8557,20.2251,37.8,100,5.79
572,Mayo,US,2021-09-23 20:02:16,81,38.8876,-76.5119,79.23,20,5.99
573,Taksimo,RU,2021-09-23 20:02:16,87,56.3444,114.8794,34.84,25,2.48
574,Zyryanka,RU,2021-09-23 20:02:17,81,65.75,150.85,33.15,65,4.65
575,Lincoln,US,2021-09-23 19:58:49,30,40.8,-96.667,85.01,0,1.99
576,Xuddur,SO,2021-09-23 20:02:17,70,4.1213,43.8894,74.89,93,20.22
577,Shache,CN,2021-09-23 20:02:18,22,38.4167,77.2406,68.95,0,6.13
578,Aksha,RU,2021-09-23 20:02:18,82,50.2814,113.2867,37.49,6,1.21
579,Boa Vista,BR,2021-09-23 20:00:44,57,2.8197,-60.6733,89.31,100,4.52
580,Chenghai,CN,2021-09-23 20:02:18,81,23.4632,116.768,80.47,100,6.08
581,Rumuruti,KE,2021-09-23 20:02:19,71,0.267,36.5389,60.28,62,11.01
582,Kailua,US,2021-09-23 20:02:19,69,21.4022,-157.7394,83.14,18,17.27
583,Alekseyevsk,RU,2021-09-23 20:02:20,81,57.8406,108.3492,34.74,13,2.64
584,Valdivia,CL,2021-09-23 20:02:20,56,-39.8142,-73.2459,61.27,16,3.78
585,Pingliang,CN,2021-09-23 20:02:20,92,35.5392,106.6861,60.46,100,4.43
586,Mokhsogollokh,RU,2021-09-23 20:02:21,98,61.4681,128.9203,40.21,100,4.43
587,Ayan,RU,2021-09-23 20:02:21,64,56.45,138.1667,50.22,0,4.61
588,Labrea,BR,2021-09-23 20:02:22,51,-7.2586,-64.7981,90.75,94,5.82
589,Kampong Cham,KH,2021-09-23 20:02:22,92,11.9934,105.4635,76.14,100,2.21
590,Kayerkan,RU,2021-09-23 20:02:23,86,69.3497,87.7602,32.74,3,5.77
591,Lipari,IT,2021-09-23 20:02:23,54,38.4674,14.954,71.78,9,2.17
592,Juneau,US,2021-09-23 20:02:24,100,58.3019,-134.4197,44.1,100,7.16
593,Pouebo,NC,2021-09-23 20:02:24,65,-20.4,164.5667,67.06,41,9.01
594,Kendari,ID,2021-09-23 20:02:25,97,-3.945,122.4989,71.51,98,2.98
595,Perth,AU,2021-09-23 19:58:18,74,-31.9333,115.8333,55.4,40,10.36
596,Neiafu,TO,2021-09-23 20:02:25,78,-18.65,-173.9833,76.41,30,13.04
597,Paamiut,GL,2021-09-23 20:02:26,72,61.994,-49.6678,34.12,16,19.24
598,Zhezkazgan,KZ,2021-09-23 20:02:26,57,47.8043,67.7144,45.34,0,14.65
599,Pangody,RU,2021-09-23 20:02:26,94,65.85,74.4859,37.29,100,14.09
600,Saint-Augustin,CA,2021-09-23 20:02:27,89,51.226,-58.6502,51.22,100,3.67
601,Lampa,CL,2021-09-23 20:02:27,14,-33.2833,-70.9,77.54,0,12.66
602,Marystown,CA,2021-09-23 20:02:28,86,47.1666,-55.1483,63.59,51,14.94
603,Malakal,SS,2021-09-23 20:02:28,88,9.5334,31.6605,75.29,47,4.16
604,Santa Isabel Do Rio Negro,BR,2021-09-23 20:02:29,84,-0.4139,-65.0192,82.38,86,4.07
605,Taoudenni,ML,2021-09-23 20:02:29,8,22.6783,-3.9836,100.99,0,8.37
606,Bagn,NO,2021-09-23 20:02:29,88,60.8225,9.5521,41.74,2,5.61
607,Kachug,RU,2021-09-23 20:02:30,67,53.9606,105.8817,37.49,99,2.55
608,Puerto Del Rosario,ES,2021-09-23 20:02:30,74,28.5004,-13.8627,71.92,27,7.96
609,Erlanger,US,2021-09-23 20:00:36,61,39.0167,-84.6008,66.78,37,1.01
610,Korem,ET,2021-09-23 20:02:31,87,12.5058,39.5228,56.5,94,3.8
611,Turbat,PK,2021-09-23 20:02:31,68,26.0023,63.044,82.9,7,4.27
612,North Branch,US,2021-09-23 20:02:32,46,45.5113,-92.9802,75.07,0,4.94
613,Avera,US,2021-09-23 20:02:32,43,33.194,-82.5271,78.71,0,6.04
614,Kloulklubed,PW,2021-09-23 20:02:32,75,7.0419,134.2556,83.05,100,5.57
615,Cap Malheureux,MU,2021-09-23 20:01:11,78,-19.9842,57.6142,70.47,46,8.99
616,Chenzhou,CN,2021-09-23 20:02:33,83,25.8,113.0333,76.35,0,4.61
617,Vangaindrano,MG,2021-09-23 20:02:34,87,-23.35,47.6,67.66,63,4.14
618,Vardo,NO,2021-09-23 20:02:34,75,70.3705,31.1107,42.55,50,21.88
619,Kabinda,CD,2021-09-23 20:02:34,78,-6.1333,24.4833,70.25,100,8.32
620,Slave Lake,CA,2021-09-23 20:00:08,34,55.2834,-114.769,52.74,2,15.32
621,Burnie,AU,2021-09-23 20:02:35,80,-41.0667,145.9167,49.64,100,17.0
622,Itarema,BR,2021-09-23 20:02:35,71,-2.9248,-39.9167,81.64,42,17.81
623,Plouzane,FR,2021-09-23 20:02:36,88,48.3833,-4.6167,59.09,77,5.86
624,Klyuchi,RU,2021-09-23 20:02:36,91,52.2667,79.1667,34.25,28,7.49
625,Panji,ID,2021-09-23 20:02:37,76,-7.7253,114.0995,75.45,96,4.16
626,Bubaque,GW,2021-09-23 20:02:38,74,11.2833,-15.8333,82.36,99,6.89
627,Palasa,IN,2021-09-23 20:02:38,89,18.7667,84.4167,78.3,57,4.09
628,Muttupet,IN,2021-09-23 20:02:39,76,10.4,79.4833,82.56,65,7.09
629,Imbituba,BR,2021-09-23 19:59:50,72,-28.24,-48.6703,67.89,98,16.87
630,Saint-Ambroise,CA,2021-09-23 20:02:39,92,48.5501,-71.3324,58.59,100,6.29
631,Kuusamo,FI,2021-09-23 20:02:40,81,65.9667,29.1833,42.84,90,16.11
632,Ponta Delgada,PT,2021-09-23 20:02:40,70,37.7333,-25.6667,69.17,51,11.3
633,Pampierstad,ZA,2021-09-23 20:02:40,30,-27.7832,24.6877,66.99,8,8.28
634,Mao,ES,2021-09-23 20:02:41,82,39.8885,4.2658,75.13,21,18.97
635,Mitsamiouli,KM,2021-09-23 20:02:41,80,-11.3847,43.2844,76.42,0,6.04
636,Floriano,BR,2021-09-23 20:02:42,18,-6.7669,-43.0225,102.67,62,9.1
637,Lujan,AR,2021-09-23 20:02:42,65,-34.5703,-59.105,68.22,78,1.99
638,Karratha,AU,2021-09-23 20:02:43,48,-20.7377,116.8463,71.73,19,7.11
639,Mitu,CO,2021-09-23 20:02:43,67,1.1983,-70.1733,81.45,97,3.71
640,Takoradi,GH,2021-09-23 20:02:43,91,4.8845,-1.7554,76.78,12,6.29
641,Bristol,US,2021-09-23 20:02:44,75,41.8334,-71.1662,80.62,75,4.0
642,Champua,IN,2021-09-23 20:02:45,97,22.0833,85.6667,73.54,88,5.7
643,Pahrump,US,2021-09-23 20:02:45,17,36.2083,-115.9839,93.25,0,1.01
644,Nhulunbuy,AU,2021-09-23 20:02:45,76,-12.2333,136.7667,74.3,29,10.25
645,Thunder Bay,CA,2021-09-23 20:02:46,70,48.4001,-89.3168,72.0,0,5.01
646,Sao Jose Da Coroa Grande,BR,2021-09-23 20:02:46,78,-8.8978,-35.1478,79.21,19,9.55
647,Yerbogachen,RU,2021-09-23 20:02:47,96,61.2767,108.0108,37.36,100,0.04
648,Ust-Kuyga,RU,2021-09-23 20:02:47,88,70.0167,135.6,35.06,96,6.13
649,Hanzhong,CN,2021-09-23 20:02:47,99,33.0728,107.0303,68.2,96,2.17
650,Madingou,CG,2021-09-23 20:02:48,58,-4.1536,13.55,82.65,99,3.76
651,Jalu,LY,2021-09-23 20:02:48,22,29.0331,21.5482,85.96,0,10.89
652,Evensk,RU,2021-09-23 20:02:48,74,61.95,159.2333,40.59,12,3.47
653,Umm Lajj,SA,2021-09-23 20:02:49,53,25.0213,37.2685,85.68,2,9.26
654,Bismarck,US,2021-09-23 19:58:51,35,46.8083,-100.7837,79.88,1,10.36
655,Nicoya,CR,2021-09-23 20:02:49,74,10.1483,-85.452,76.55,78,1.99
656,Vuktyl,RU,2021-09-23 20:02:50,94,63.8567,57.3094,38.7,100,4.32
657,Ternate,ID,2021-09-23 20:02:50,82,0.8,127.4,78.75,100,5.03
658,Puerto Cabezas,NI,2021-09-23 20:00:18,73,14.0351,-83.3888,83.07,39,9.91
659,Camden,US,2021-09-23 19:59:43,95,39.7835,-74.9663,75.56,100,1.99
660,Bonthe,SL,2021-09-23 20:02:51,84,7.5264,-12.505,78.87,100,6.55
661,Kikwit,CD,2021-09-23 20:02:51,70,-5.041,18.8162,76.53,100,3.36
662,Soloneshnoye,RU,2021-09-23 20:02:52,96,51.6544,84.3197,35.83,100,2.57
663,Sao Desiderio,BR,2021-09-23 20:02:52,21,-12.3633,-44.9733,94.64,73,8.84
664,Vyartsilya,RU,2021-09-23 20:02:53,88,62.1764,30.693,45.0,100,12.44
665,Ust-Ishim,RU,2021-09-23 20:02:53,89,57.6935,71.1665,38.59,100,6.08
666,Fort Abbas,PK,2021-09-23 20:02:54,73,29.1925,72.8536,82.15,4,9.42
667,Mindelo,CV,2021-09-23 20:02:54,69,16.8901,-24.9804,80.15,40,19.57
668,Bac Lieu,VN,2021-09-23 20:02:54,89,9.285,105.7244,78.08,100,7.02
669,Halifax,CA,2021-09-23 19:59:49,73,44.6453,-63.5724,74.68,40,5.01
670,Rangoon,MM,2021-09-23 20:00:10,96,16.8053,96.1561,74.53,99,4.43
671,Phuket,TH,2021-09-23 20:02:55,83,8.0,98.25,80.89,100,7.52
672,Dingle,PH,2021-09-23 20:02:55,92,10.9995,122.6711,76.06,92,5.37
673,Laguna,US,2021-09-23 20:02:56,27,38.421,-121.4238,97.43,1,3.0
674,Buin,CL,2021-09-23 20:01:52,20,-33.7333,-70.75,80.64,18,2.91
675,Tessalit,ML,2021-09-23 20:02:56,17,20.1986,1.0114,97.29,92,2.77
676,Baoqing,CN,2021-09-23 20:02:57,80,46.3317,132.2111,41.59,0,4.47
677,Tautira,PF,2021-09-23 20:02:57,77,-17.7333,-149.15,80.62,0,13.89
678,Sungaipenuh,ID,2021-09-23 20:02:58,96,-2.0833,101.3833,65.41,100,2.68
679,Bacungan,PH,2021-09-23 20:02:58,82,9.9106,118.7022,79.03,100,4.05
680,Puri,IN,2021-09-23 20:02:58,80,19.8,85.85,82.72,74,7.54
681,Borba,BR,2021-09-23 20:02:59,71,-4.3878,-59.5939,82.92,99,2.08
682,Nouadhibou,MR,2021-09-23 20:02:59,84,20.931,-17.0347,71.58,0,22.32
683,Altamont,US,2021-09-23 20:03:00,37,42.2068,-121.7372,71.78,1,3.0
684,Te Anau,NZ,2021-09-23 20:03:00,79,-45.4167,167.7167,42.69,43,6.31
685,Prince Rupert,CA,2021-09-23 20:00:06,93,54.3161,-130.3201,50.09,90,21.85
686,Matara,LK,2021-09-23 20:03:01,90,5.9485,80.5353,78.21,91,9.31
687,Ewa Beach,US,2021-09-23 20:03:01,59,21.3156,-158.0072,87.75,75,10.36
688,Jacareacanga,BR,2021-09-23 20:03:02,53,-6.2222,-57.7528,88.99,94,3.24
689,Joetsu,JP,2021-09-23 20:03:02,81,37.1483,138.2364,66.42,98,8.34
690,Anadyr,RU,2021-09-23 20:03:02,95,64.75,177.4833,32.9,100,17.02
691,Morros,BR,2021-09-23 20:03:03,15,-9.4467,-46.3003,99.68,29,7.52
692,Cam Ranh,VN,2021-09-23 20:03:03,83,11.9214,109.1591,78.1,100,2.26
693,Campbell River,CA,2021-09-23 20:03:03,66,50.0163,-125.2446,61.59,99,3.44
694,Chuncheng,CN,2021-09-23 20:03:04,94,22.1731,111.7886,76.48,87,2.73
695,Pimentel,PE,2021-09-23 20:03:04,77,-6.8367,-79.9342,67.19,35,12.84
696,San Lawrenz,MT,2021-09-23 20:03:05,79,36.0553,14.204,75.85,70,1.01
697,Qiongshan,CN,2021-09-23 20:03:05,90,20.0058,110.3542,79.14,100,13.22
698,Iberia,US,2021-09-23 20:03:06,49,29.9502,-91.7507,78.98,0,8.37
699,San Luis Obispo,US,2021-09-23 20:03:06,47,35.3666,-120.5343,90.12,1,4.61
700,Makokou,GA,2021-09-23 20:03:06,97,0.5738,12.8642,70.21,100,1.95
701,Ovsyanka,RU,2021-09-23 20:03:07,98,55.9575,92.5519,35.91,100,1.39
702,Belize,BZ,2021-09-23 20:03:07,41,17.25,-88.75,88.25,93,4.92
703,Lahuachaca,BO,2021-09-23 20:03:08,38,-17.3667,-67.6667,55.99,98,20.13
704,Linhares,BR,2021-09-23 20:03:08,57,-19.3911,-40.0722,71.22,23,10.45
705,Mabaruma,GY,2021-09-23 20:03:09,83,8.2,-59.7833,80.56,100,5.14
706,Brae,GB,2021-09-23 20:03:09,84,60.3964,-1.353,48.11,100,13.27
707,Axim,GH,2021-09-23 20:03:09,92,4.8699,-2.2405,77.14,75,5.32
708,Coos Bay,US,2021-09-23 20:03:10,61,43.3665,-124.2179,80.31,1,23.02
709,Frankfort,ZA,2021-09-23 20:03:10,32,-27.2667,28.4833,62.19,99,5.97
710,Carutapera,BR,2021-09-23 20:03:11,69,-1.195,-46.02,82.98,39,9.26
711,Muroto,JP,2021-09-23 20:03:11,69,33.2833,134.15,75.94,48,5.44
712,Tiarei,PF,2021-09-23 20:03:12,77,-17.5333,-149.3333,80.62,3,16.06
713,Takaka,NZ,2021-09-23 20:03:13,84,-40.85,172.8,55.56,12,3.0
714,Wonthaggi,AU,2021-09-23 20:03:13,70,-38.6044,145.5913,56.37,0,19.71
715,Beyneu,KZ,2021-09-23 20:03:13,32,45.3167,55.2,64.51,97,24.47
716,Mocuba,MZ,2021-09-23 20:03:14,87,-16.8392,36.9856,68.23,8,4.05
717,Sawakin,SD,2021-09-23 20:03:14,67,19.1059,37.3321,87.13,15,7.92
718,Krieglach,AT,2021-09-23 20:03:15,87,47.5333,15.55,54.97,100,3.11
719,Namibe,AO,2021-09-23 20:03:15,90,-15.1961,12.1522,66.72,34,7.43
720,Tromso,NO,2021-09-23 20:03:16,90,69.6496,18.957,47.05,96,9.51
721,Pailon,BO,2021-09-23 20:03:16,26,-17.65,-62.75,94.06,100,7.29
722,Komsomolskiy,UZ,2021-09-23 20:03:16,24,40.4272,71.7189,66.16,0,5.5
723,Martinsville,US,2021-09-23 19:59:18,32,36.6915,-79.8725,72.18,0,8.99
724,Russell,US,2021-09-23 20:03:17,44,32.3502,-85.1999,76.28,1,9.22
725,Akdepe,TM,2021-09-23 20:03:17,18,42.0551,59.3788,68.13,65,18.59
726,Biri,PH,2021-09-23 20:03:18,79,12.6833,124.3636,82.96,21,10.98
727,Trenggalek,ID,2021-09-23 20:03:18,94,-8.05,111.7167,75.72,100,2.53
728,Kargil,IN,2021-09-23 20:03:19,59,34.5667,76.1,50.43,7,6.87
729,Tahoua,NE,2021-09-23 20:03:19,42,14.8888,5.2692,90.75,100,1.52
730,Ipixuna,BR,2021-09-23 20:03:20,70,-1.7625,-48.8043,83.79,100,6.71
731,Teguldet,RU,2021-09-23 20:03:20,94,57.3064,88.1667,34.77,100,2.48
732,Necochea,AR,2021-09-23 20:00:20,75,-38.5473,-58.7368,57.07,53,8.93
733,Ust-Koksa,RU,2021-09-23 20:03:20,65,50.2696,85.6108,31.71,100,2.19
734,Plettenberg Bay,ZA,2021-09-23 20:03:21,76,-34.0527,23.3716,60.39,100,9.13
735,Baranain,ES,2021-09-23 20:03:21,79,42.8057,-1.6773,65.14,16,4.0
736,Port Hedland,AU,2021-09-23 20:03:22,46,-20.3167,118.5667,72.88,43,7.4
737,San Juan,AR,2021-09-23 20:00:05,14,-31.5375,-68.5364,79.05,0,5.08
738,Tongliao,CN,2021-09-23 20:03:22,90,43.6125,122.2653,54.3,12,5.21
739,Solnechnyy,RU,2021-09-23 20:03:23,77,50.7214,136.6319,40.6,4,3.71
740,Tahta,EG,2021-09-23 20:03:23,30,26.7693,31.5021,85.91,0,7.72
741,Dafeng,CN,2021-09-23 20:03:23,91,23.4517,108.5881,76.78,97,1.7
742,Arecibo,PR,2021-09-23 20:03:24,73,18.4724,-66.7157,90.19,27,1.01
743,Batagay,RU,2021-09-23 20:03:24,82,67.6333,134.6333,35.8,89,3.58
744,Kattivakkam,IN,2021-09-23 20:03:25,75,13.2167,80.3167,82.49,72,9.62
745,Ancud,CL,2021-09-23 20:03:25,80,-41.8697,-73.8203,56.43,94,11.86
746,Paoua,CF,2021-09-23 20:03:26,97,7.2427,16.4406,70.45,100,3.56
747,Neryungri,RU,2021-09-23 20:03:26,93,56.6709,124.6491,42.96,100,9.35
748,Agadez,NE,2021-09-23 20:03:26,9,19.75,10.25,88.68,0,6.22
749,Burgeo,CA,2021-09-23 20:03:27,81,47.6167,-57.6152,66.09,43,15.14
750,Mirnyy,RU,2021-09-23 20:03:27,91,62.5353,113.9611,36.68,100,2.35
751,Carman,CA,2021-09-23 20:03:28,34,49.4992,-98.0016,76.71,100,15.61
752,Puerto Rico,AR,2021-09-23 20:03:28,88,-26.796,-55.024,67.12,100,5.84
753,Berlevag,NO,2021-09-23 20:03:28,65,70.8578,29.0864,44.6,0,2.3
754,Cockburn Town,TC,2021-09-23 20:01:20,75,21.4612,-71.1419,83.52,98,7.96
755,Lingen,DE,2021-09-23 20:03:29,92,52.5167,7.3167,59.27,53,11.14
756,Sao Joao Dos Montes,PT,2021-09-23 20:03:29,65,38.9394,-9.0189,71.64,45,5.93
757,Rapid Valley,US,2021-09-23 20:03:30,23,44.0625,-103.1463,82.0,1,4.0
758,Graaff-Reinet,ZA,2021-09-23 20:03:30,24,-32.2522,24.5308,68.92,57,4.05
759,Ruteng,ID,2021-09-23 20:03:31,93,-8.6136,120.4721,61.92,100,1.43
760,Aksay,RU,2021-09-23 20:03:31,74,47.26,39.87,54.37,99,2.8
761,Cooma,AU,2021-09-23 20:03:32,76,-36.2333,149.1333,47.8,33,10.42
762,Srandakan,ID,2021-09-23 20:03:32,92,-7.9386,110.2506,75.74,100,5.82
763,Cairns,AU,2021-09-23 19:59:38,82,-16.9167,145.7667,69.75,40,8.05
764,Buala,SB,2021-09-23 20:03:33,82,-8.145,159.5921,78.3,100,2.8
765,Williams Lake,CA,2021-09-23 20:03:33,44,52.1415,-122.1445,53.22,100,1.01
766,Ritchie,ZA,2021-09-23 20:03:33,28,-29.038,24.6028,69.58,4,7.83
767,Novobirilyussy,RU,2021-09-23 20:03:34,97,56.9514,90.6661,28.4,22,3.2
768,High Level,CA,2021-09-23 20:03:34,53,58.5169,-117.136,49.19,70,9.35
769,Correia Pinto,BR,2021-09-23 20:03:35,63,-27.5847,-50.3611,62.73,100,4.68
770,Muisne,EC,2021-09-23 20:03:35,77,0.6,-80.0333,76.15,100,8.05
771,Zhangjiakou,CN,2021-09-23 20:03:36,96,40.81,114.8794,60.06,95,5.19
772,Aykhal,RU,2021-09-23 20:03:37,88,66.0,111.5,32.4,95,4.68
773,Chadiza,ZM,2021-09-23 20:03:38,67,-14.0678,32.4392,65.23,30,6.53
774,Kulhudhuffushi,MV,2021-09-23 20:03:38,77,6.6221,73.07,82.81,20,18.07
775,Springbok,ZA,2021-09-23 20:03:38,52,-29.6643,17.8865,53.53,79,2.42
776,Tabas,IR,2021-09-23 20:03:39,11,33.5959,56.9244,84.61,43,3.53
